{
"type": "FeatureCollection",
"name": "restaurants_info",
"crs": { "type": "name", "properties": { "name": "urn:ogc:def:crs:OGC:1.3:CRS84" } },
"features": [
{ "type": "Feature", "properties": { "title": "Phil-Am Kusina", "price": "$10–20", "categoryName": "Filipino restaurant", "address": "556 Tompkins Ave., Staten Island, NY 10305", "neighborhood": "Rosebank", "street": "556 Tompkins Ave.", "city": "Staten Island", "postalCode": "10305", "state": "New York", "location": { "lat": 40.6124623, "lng": -74.071427 }, "totalScore": 4.7, "reviewsCount": 320, "url": "https://www.google.com/maps/search/?api=1&query=Phil-Am%20Kusina&query_place_id=ChIJDYD92atPwokRlN30x0vubIk", "latitude": 40.6124623, "longitude": -74.071427 }, "geometry": { "type": "Point", "coordinates": [ -74.071427, 40.6124623 ] } },
{ "type": "Feature", "properties": { "title": "H & L Bagels", "price": "$1–10", "categoryName": "Bagel shop", "address": "8818 3rd Ave, Brooklyn, NY 11209", "neighborhood": "Fort Hamilton", "street": "8818 3rd Ave", "city": "Brooklyn", "postalCode": "11209", "state": "New York", "location": { "lat": 40.6216254, "lng": -74.0320368 }, "totalScore": 4.6, "reviewsCount": 276, "url": "https://www.google.com/maps/search/?api=1&query=H%20%26%20L%20Bagels&query_place_id=ChIJ7_q38YpPwokRkCP4WrrKyyE", "latitude": 40.6216254, "longitude": -74.0320368 }, "geometry": { "type": "Point", "coordinates": [ -74.0320368, 40.6216254 ] } },
{ "type": "Feature", "properties": { "title": "Coszcal De Allende", "price": "$30–50", "categoryName": "Mexican restaurant", "address": "7506 3rd Ave, Brooklyn, NY 11209", "neighborhood": "Bay Ridge", "street": "7506 3rd Ave", "city": "Brooklyn", "postalCode": "11209", "state": "New York", "location": { "lat": 40.6313072, "lng": -74.0281532 }, "totalScore": 4.4, "reviewsCount": 331, "url": "https://www.google.com/maps/search/?api=1&query=Coszcal%20De%20Allende&query_place_id=ChIJi5qu7VZFwokR-1Q2ILFTyuM", "latitude": 40.6313072, "longitude": -74.0281532 }, "geometry": { "type": "Point", "coordinates": [ -74.0281532, 40.6313072 ] } },
{ "type": "Feature", "properties": { "title": "E.A.T.", "price": "$30–50", "categoryName": "American restaurant", "address": "1064 Madison Ave, New York, NY 10028", "neighborhood": "Manhattan", "street": "1064 Madison Ave", "city": "New York", "postalCode": "10028", "state": "New York", "location": { "lat": 40.7773172, "lng": -73.9616247 }, "totalScore": 2.9, "reviewsCount": 1061, "url": "https://www.google.com/maps/search/?api=1&query=E.A.T.&query_place_id=ChIJ8aQDcJZYwokRyPVIfqjkazY", "latitude": 40.7773172, "longitude": -73.9616247 }, "geometry": { "type": "Point", "coordinates": [ -73.9616247, 40.7773172 ] } },
{ "type": "Feature", "properties": { "title": "Dowling's at The Carlyle", "price": "$100+", "categoryName": "Restaurant", "address": "35 E 76th St, New York, NY 10021", "neighborhood": "Manhattan", "street": "35 E 76th St", "city": "New York", "postalCode": "10021", "state": "New York", "location": { "lat": 40.7744222, "lng": -73.9631514 }, "totalScore": 3.7, "reviewsCount": 61, "url": "https://www.google.com/maps/search/?api=1&query=Dowling's%20at%20The%20Carlyle&query_place_id=ChIJIaES4oRZwokRELx8tCqNYOg", "latitude": 40.7744222, "longitude": -73.9631514 }, "geometry": { "type": "Point", "coordinates": [ -73.9631514, 40.7744222 ] } },
{ "type": "Feature", "properties": { "title": "San Matteo Pizza & Espresso Bar", "price": "$20–30", "categoryName": "Italian restaurant", "address": "1716 2nd Ave, New York, NY 10128", "neighborhood": "Manhattan", "street": "1716 2nd Ave", "city": "New York", "postalCode": "10128", "state": "New York", "location": { "lat": 40.7798357, "lng": -73.9500988 }, "totalScore": 4.5, "reviewsCount": 867, "url": "https://www.google.com/maps/search/?api=1&query=San%20Matteo%20Pizza%20%26%20Espresso%20Bar&query_place_id=ChIJH_BcLqVYwokRQcOB4SsoZxY", "latitude": 40.7798357, "longitude": -73.9500988 }, "geometry": { "type": "Point", "coordinates": [ -73.9500988, 40.7798357 ] } },
{ "type": "Feature", "properties": { "title": "Bread N Wine", "price": "$10–20", "categoryName": "American restaurant", "address": "1417 Lexington Ave, New York, NY 10128", "neighborhood": "Manhattan", "street": "1417 Lexington Ave", "city": "New York", "postalCode": "10128", "state": "New York", "location": { "lat": 40.783651, "lng": -73.952288 }, "totalScore": 4.5, "reviewsCount": 269, "url": "https://www.google.com/maps/search/?api=1&query=Bread%20N%20Wine&query_place_id=ChIJNytUk8hZwokR3ujqnpxOJTI", "latitude": 40.783651, "longitude": -73.952288 }, "geometry": { "type": "Point", "coordinates": [ -73.952288, 40.783651 ] } },
{ "type": "Feature", "properties": { "title": "Sushi of Gari UES", "price": "$100+", "categoryName": "Sushi restaurant", "address": "402 E 78th St, New York, NY 10075", "neighborhood": "Manhattan", "street": "402 E 78th St", "city": "New York", "postalCode": "10075", "state": "New York", "location": { "lat": 40.7712773, "lng": -73.9528127 }, "totalScore": 4.2, "reviewsCount": 280, "url": "https://www.google.com/maps/search/?api=1&query=Sushi%20of%20Gari%20UES&query_place_id=ChIJs9JDurhYwokRSjnRF8h3US8", "latitude": 40.7712773, "longitude": -73.9528127 }, "geometry": { "type": "Point", "coordinates": [ -73.9528127, 40.7712773 ] } },
{ "type": "Feature", "properties": { "title": "Heidi's House by the side of the road", "price": "$50–100", "categoryName": "Restaurant", "address": "308 E 78th St, New York, NY 10075", "neighborhood": "Manhattan", "street": "308 E 78th St", "city": "New York", "postalCode": "10075", "state": "New York", "location": { "lat": 40.772189, "lng": -73.9550639 }, "totalScore": 4.6, "reviewsCount": 373, "url": "https://www.google.com/maps/search/?api=1&query=Heidi's%20House%20by%20the%20side%20of%20the%20road&query_place_id=ChIJE9I-Pr9YwokRQh5-2GjSd-A", "latitude": 40.772189, "longitude": -73.9550639 }, "geometry": { "type": "Point", "coordinates": [ -73.9550639, 40.772189 ] } },
{ "type": "Feature", "properties": { "title": "Mediterraneo", "price": "$30–50", "categoryName": "Italian restaurant", "address": "1260 2nd Avenue Corner, E 66th St, New York, NY 10065", "neighborhood": "Manhattan", "street": "1260 2nd Avenue Corner, E 66th St", "city": "New York", "postalCode": "10065", "state": "NY", "location": { "lat": 40.7650482, "lng": -73.9608071 }, "totalScore": 4.3, "reviewsCount": 602, "url": "https://www.google.com/maps/search/?api=1&query=Mediterraneo&query_place_id=ChIJF_T6x-lYwokR4NQQK1Vt0rM", "latitude": 40.7650482, "longitude": -73.9608071 }, "geometry": { "type": "Point", "coordinates": [ -73.9608071, 40.7650482 ] } },
{ "type": "Feature", "properties": { "title": "Blue Sea Taverna", "price": "$30–50", "categoryName": "Greek restaurant", "address": "29-20 30th Ave., Astoria, NY 11102", "neighborhood": "Astoria", "street": "29-20 30th Ave.", "city": "Astoria", "postalCode": "11102", "state": "New York", "location": { "lat": 40.7674615, "lng": -73.922969 }, "totalScore": 4.2, "reviewsCount": 432, "url": "https://www.google.com/maps/search/?api=1&query=Blue%20Sea%20Taverna&query_place_id=ChIJTRHSwUdfwokRy6zzI_LB6c4", "latitude": 40.7674615, "longitude": -73.922969 }, "geometry": { "type": "Point", "coordinates": [ -73.922969, 40.7674615 ] } },
{ "type": "Feature", "properties": { "title": "The Bar Room", "price": "$30–50", "categoryName": "American restaurant", "address": "117 E 60th St, New York, NY 10022", "neighborhood": "Manhattan", "street": "117 E 60th St", "city": "New York", "postalCode": "10022", "state": "New York", "location": { "lat": 40.763319, "lng": -73.968502 }, "totalScore": 4.4, "reviewsCount": 1136, "url": "https://www.google.com/maps/search/?api=1&query=The%20Bar%20Room&query_place_id=ChIJ1ZG0g-9YwokR731RjbSTFvs", "latitude": 40.763319, "longitude": -73.968502 }, "geometry": { "type": "Point", "coordinates": [ -73.968502, 40.763319 ] } },
{ "type": "Feature", "properties": { "title": "Nica Trattoria", "price": "$50–100", "categoryName": "Italian restaurant", "address": "354 E 84th St, New York, NY 10028", "neighborhood": "Manhattan", "street": "354 E 84th St", "city": "New York", "postalCode": "10028", "state": "New York", "location": { "lat": 40.7756346, "lng": -73.950765 }, "totalScore": 4.6, "reviewsCount": 185, "url": "https://www.google.com/maps/search/?api=1&query=Nica%20Trattoria&query_place_id=ChIJ74rQ0rtYwokRGxdTXIcMQ8o", "latitude": 40.7756346, "longitude": -73.950765 }, "geometry": { "type": "Point", "coordinates": [ -73.950765, 40.7756346 ] } },
{ "type": "Feature", "properties": { "title": "Hummus Kitchen", "price": "$20–30", "categoryName": "Mediterranean restaurant", "address": "1613 2nd Ave, New York, NY 10028", "neighborhood": "Manhattan", "street": "1613 2nd Ave", "city": "New York", "postalCode": "10028", "state": "New York", "location": { "lat": 40.7764123, "lng": -73.9530237 }, "totalScore": 4.3, "reviewsCount": 837, "url": "https://www.google.com/maps/search/?api=1&query=Hummus%20Kitchen&query_place_id=ChIJ5WSb8btYwokRHLwjIWvRbAE", "latitude": 40.7764123, "longitude": -73.9530237 }, "geometry": { "type": "Point", "coordinates": [ -73.9530237, 40.7764123 ] } },
{ "type": "Feature", "properties": { "title": "Tanoshi Sushi Sake Bar", "price": "$100+", "categoryName": "Sushi restaurant", "address": "1372 York Ave, New York, NY 10021", "neighborhood": "Manhattan", "street": "1372 York Ave", "city": "New York", "postalCode": "10021", "state": "New York", "location": { "lat": 40.7676315, "lng": -73.9529638 }, "totalScore": 4.7, "reviewsCount": 597, "url": "https://www.google.com/maps/search/?api=1&query=Tanoshi%20Sushi%20Sake%20Bar&query_place_id=ChIJd35w0MZYwokR7LgKqfX4tXM", "latitude": 40.7676315, "longitude": -73.9529638 }, "geometry": { "type": "Point", "coordinates": [ -73.9529638, 40.7676315 ] } },
{ "type": "Feature", "properties": { "title": "Korali Estiatorio", "price": "$50–100", "categoryName": "Greek restaurant", "address": "1662 3rd Ave, New York, NY 10128", "neighborhood": "Manhattan", "street": "1662 3rd Ave", "city": "New York", "postalCode": "10128", "state": "New York", "location": { "lat": 40.783492, "lng": -73.950977 }, "totalScore": 4.5, "reviewsCount": 483, "url": "https://www.google.com/maps/search/?api=1&query=Korali%20Estiatorio&query_place_id=ChIJmeM9TKRYwokRP8kkSingkIA", "latitude": 40.783492, "longitude": -73.950977 }, "geometry": { "type": "Point", "coordinates": [ -73.950977, 40.783492 ] } },
{ "type": "Feature", "properties": { "title": "Maya", "price": "$50–100", "categoryName": "Restaurant", "address": "1191 1st Ave., New York, NY 10065", "neighborhood": "Manhattan", "street": "1191 1st Ave.", "city": "New York", "postalCode": "10065", "state": "New York", "location": { "lat": 40.7631741, "lng": -73.9597236 }, "totalScore": 4.3, "reviewsCount": 1431, "url": "https://www.google.com/maps/search/?api=1&query=Maya&query_place_id=ChIJ474qnsJYwokRnrZMyvOb5XI", "latitude": 40.7631741, "longitude": -73.9597236 }, "geometry": { "type": "Point", "coordinates": [ -73.9597236, 40.7631741 ] } },
{ "type": "Feature", "properties": { "title": "Lilli and Loo", "price": "$20–30", "categoryName": "Pan-Asian restaurant", "address": "785 Lexington Ave, New York, NY 10065", "neighborhood": "Manhattan", "street": "785 Lexington Ave", "city": "New York", "postalCode": "10065", "state": "New York", "location": { "lat": 40.7635644, "lng": -73.9670056 }, "totalScore": 4.2, "reviewsCount": 760, "url": "https://www.google.com/maps/search/?api=1&query=Lilli%20and%20Loo&query_place_id=ChIJ7bhwa-9YwokRcWqrsCk632M", "latitude": 40.7635644, "longitude": -73.9670056 }, "geometry": { "type": "Point", "coordinates": [ -73.9670056, 40.7635644 ] } },
{ "type": "Feature", "properties": { "title": "Pembroke Room", "price": "$$$", "categoryName": "Breakfast restaurant", "address": "28 E 63rd St, New York, NY 10065", "neighborhood": "Manhattan", "street": "28 E 63rd St", "city": "New York", "postalCode": "10065", "state": "New York", "location": { "lat": 40.7657388, "lng": -73.9692216 }, "totalScore": 4.4, "reviewsCount": 27, "url": "https://www.google.com/maps/search/?api=1&query=Pembroke%20Room&query_place_id=ChIJb9nOTe5YwokRJvpKNoZRyN8", "latitude": 40.7657388, "longitude": -73.9692216 }, "geometry": { "type": "Point", "coordinates": [ -73.9692216, 40.7657388 ] } },
{ "type": "Feature", "properties": { "title": "Amaranth Restaurant", "price": "$50–100", "categoryName": "Mediterranean restaurant", "address": "21 E 62nd St GROUND FLOOR, New York, NY 10065", "neighborhood": "Manhattan", "street": "21 E 62nd St GROUND FLOOR", "city": "New York", "postalCode": "10065", "state": "New York", "location": { "lat": 40.7657259, "lng": -73.9703569 }, "totalScore": 4.0, "reviewsCount": 274, "url": "https://www.google.com/maps/search/?api=1&query=Amaranth%20Restaurant&query_place_id=ChIJg2m_Mu5YwokRLiuVmGiGl7c", "latitude": 40.7657259, "longitude": -73.9703569 }, "geometry": { "type": "Point", "coordinates": [ -73.9703569, 40.7657259 ] } },
{ "type": "Feature", "properties": { "title": "Yefsi Estiatorio", "price": "$50–100", "categoryName": "Greek restaurant", "address": "1481 York Ave, Manhattan, NY 10075", "neighborhood": "Manhattan", "street": "1481 York Ave", "city": "Manhattan", "postalCode": "10075", "state": "New York", "location": { "lat": 40.7709973, "lng": -73.9509348 }, "totalScore": 4.5, "reviewsCount": 412, "url": "https://www.google.com/maps/search/?api=1&query=Yefsi%20Estiatorio&query_place_id=ChIJdVLsiLhYwokRhp04Zh8bHJ0", "latitude": 40.7709973, "longitude": -73.9509348 }, "geometry": { "type": "Point", "coordinates": [ -73.9509348, 40.7709973 ] } },
{ "type": "Feature", "properties": { "title": "Tinos", "price": "$30–50", "categoryName": "Greek restaurant", "address": "1748 1st Ave., New York, NY 10128", "neighborhood": "Manhattan", "street": "1748 1st Ave.", "city": "New York", "postalCode": "10128", "state": "New York", "location": { "lat": 40.7796701, "lng": -73.9469814 }, "totalScore": 4.7, "reviewsCount": 191, "url": "https://www.google.com/maps/search/?api=1&query=Tinos&query_place_id=ChIJAx204q9YwokRdfgKIOB5oAQ", "latitude": 40.7796701, "longitude": -73.9469814 }, "geometry": { "type": "Point", "coordinates": [ -73.9469814, 40.7796701 ] } },
{ "type": "Feature", "properties": { "title": "Soledad", "price": "$50–100", "categoryName": "Mexican restaurant", "address": "1825 2nd Ave, New York, NY 10128", "neighborhood": "Manhattan", "street": "1825 2nd Ave", "city": "New York", "postalCode": "10128", "state": "New York", "location": { "lat": 40.7833595, "lng": -73.947991 }, "totalScore": 4.6, "reviewsCount": 85, "url": "https://www.google.com/maps/search/?api=1&query=Soledad&query_place_id=ChIJTVPNkiRZwokRNeH7-uZGlxw", "latitude": 40.7833595, "longitude": -73.947991 }, "geometry": { "type": "Point", "coordinates": [ -73.947991, 40.7833595 ] } },
{ "type": "Feature", "properties": { "title": "Botte UES", "price": "$30–50", "categoryName": "Italian restaurant", "address": "1606 1st Ave., New York, NY 10028", "neighborhood": "Manhattan", "street": "1606 1st Ave.", "city": "New York", "postalCode": "10028", "state": "New York", "location": { "lat": 40.7750676, "lng": -73.9504538 }, "totalScore": 4.4, "reviewsCount": 272, "url": "https://www.google.com/maps/search/?api=1&query=Botte%20UES&query_place_id=ChIJI43xgLlYwokR9H-LXHs36gc", "latitude": 40.7750676, "longitude": -73.9504538 }, "geometry": { "type": "Point", "coordinates": [ -73.9504538, 40.7750676 ] } },
{ "type": "Feature", "properties": { "title": "Cacio e Pepe", "price": "$30–50", "categoryName": "Italian restaurant", "address": "1479 York Ave, New York, NY 10075", "neighborhood": "Manhattan", "street": "1479 York Ave", "city": "New York", "postalCode": "10075", "state": "New York", "location": { "lat": 40.7709348, "lng": -73.9509625 }, "totalScore": 4.5, "reviewsCount": 163, "url": "https://www.google.com/maps/search/?api=1&query=Cacio%20e%20Pepe&query_place_id=ChIJBxUNXcJZwokRGLXv7zplP-A", "latitude": 40.7709348, "longitude": -73.9509625 }, "geometry": { "type": "Point", "coordinates": [ -73.9509625, 40.7709348 ] } },
{ "type": "Feature", "properties": { "title": "Marky's Caviar (Madison Ave.)", "price": "$100+", "categoryName": "Fine dining restaurant", "address": "1067 Madison Ave, New York, NY 10028", "neighborhood": "Manhattan", "street": "1067 Madison Ave", "city": "New York", "postalCode": "10028", "state": "New York", "location": { "lat": 40.7773924, "lng": -73.961169 }, "totalScore": 4.5, "reviewsCount": 64, "url": "https://www.google.com/maps/search/?api=1&query=Marky's%20Caviar%20(Madison%20Ave.)&query_place_id=ChIJORO6nCVZwokRSqpU9A7d6c4", "latitude": 40.7773924, "longitude": -73.961169 }, "geometry": { "type": "Point", "coordinates": [ -73.961169, 40.7773924 ] } },
{ "type": "Feature", "properties": { "title": "Trattoria L'incontro", "price": "$50–100", "categoryName": "Italian restaurant", "address": "1572 2nd Ave, New York, NY 10028", "neighborhood": "Manhattan", "street": "1572 2nd Ave", "city": "New York", "postalCode": "10028", "state": "New York", "location": { "lat": 40.7749695, "lng": -73.9535474 }, "totalScore": 4.7, "reviewsCount": 1376, "url": "https://www.google.com/maps/search/?api=1&query=Trattoria%20L'incontro&query_place_id=ChIJFb-9qGdfwokRi14Wngdo12o", "latitude": 40.7749695, "longitude": -73.9535474 }, "geometry": { "type": "Point", "coordinates": [ -73.9535474, 40.7749695 ] } },
{ "type": "Feature", "properties": { "title": "Chez Nick", "price": "$30–50", "categoryName": "New American restaurant", "address": "1737 York Ave, New York, NY 10128", "neighborhood": "Manhattan", "street": "1737 York Ave", "city": "New York", "postalCode": "10128", "state": "New York", "location": { "lat": 40.7790105, "lng": -73.9452127 }, "totalScore": 4.6, "reviewsCount": 421, "url": "https://www.google.com/maps/search/?api=1&query=Chez%20Nick&query_place_id=ChIJy0KIAvFZwokRFpoF_hbSwXg", "latitude": 40.7790105, "longitude": -73.9452127 }, "geometry": { "type": "Point", "coordinates": [ -73.9452127, 40.7790105 ] } },
{ "type": "Feature", "properties": { "title": "Chez Fifi", "price": "$50–100", "categoryName": "Restaurant", "address": "140 E 74th St, New York, NY 10021", "neighborhood": "Manhattan", "street": "140 E 74th St", "city": "New York", "postalCode": "10021", "state": "New York", "location": { "lat": 40.7716972, "lng": -73.9615623 }, "totalScore": 5.0, "reviewsCount": 8, "url": "https://www.google.com/maps/search/?api=1&query=Chez%20Fifi&query_place_id=ChIJCZ6-33tZwokRIika4HJVD-o", "latitude": 40.7716972, "longitude": -73.9615623 }, "geometry": { "type": "Point", "coordinates": [ -73.9615623, 40.7716972 ] } },
{ "type": "Feature", "properties": { "title": "Sojourn", "price": "$$", "categoryName": "New American restaurant", "address": "244 E 79th St, New York, NY 10075", "neighborhood": "Manhattan", "street": "244 E 79th St", "city": "New York", "postalCode": "10075", "state": "New York", "location": { "lat": 40.7733557, "lng": -73.9557476 }, "totalScore": 4.3, "reviewsCount": 553, "url": "https://www.google.com/maps/search/?api=1&query=Sojourn&query_place_id=ChIJK_w8Hb9YwokRegJCc5qritU", "latitude": 40.7733557, "longitude": -73.9557476 }, "geometry": { "type": "Point", "coordinates": [ -73.9557476, 40.7733557 ] } },
{ "type": "Feature", "properties": { "title": "Eighteen", "price": "$50–100", "categoryName": "Kosher restaurant", "address": "240 E 81st St, New York, NY 10028", "neighborhood": "Manhattan", "street": "240 E 81st St", "city": "New York", "postalCode": "10028", "state": "New York", "location": { "lat": 40.7746952, "lng": -73.9546616 }, "totalScore": 4.3, "reviewsCount": 300, "url": "https://www.google.com/maps/search/?api=1&query=Eighteen&query_place_id=ChIJbQYrur5YwokRGrkyjinbNQc", "latitude": 40.7746952, "longitude": -73.9546616 }, "geometry": { "type": "Point", "coordinates": [ -73.9546616, 40.7746952 ] } },
{ "type": "Feature", "properties": { "title": "Altesi", "price": "$50–100", "categoryName": "Italian restaurant", "address": "26 E 64th St, New York, NY 10065", "neighborhood": "Manhattan", "street": "26 E 64th St", "city": "New York", "postalCode": "10065", "state": "New York", "location": { "lat": 40.766661, "lng": -73.969596 }, "totalScore": 4.2, "reviewsCount": 251, "url": "https://www.google.com/maps/search/?api=1&query=Altesi&query_place_id=ChIJUVVNQO5YwokR-MzkMXk4m5Y", "latitude": 40.766661, "longitude": -73.969596 }, "geometry": { "type": "Point", "coordinates": [ -73.969596, 40.766661 ] } },
{ "type": "Feature", "properties": { "title": "Bohemian Spirit", "price": "$30–50", "categoryName": "Czech restaurant", "address": "321 E 73rd St, New York, NY 10021", "neighborhood": "Manhattan", "street": "321 E 73rd St", "city": "New York", "postalCode": "10021", "state": "New York", "location": { "lat": 40.769081, "lng": -73.95648 }, "totalScore": 4.5, "reviewsCount": 588, "url": "https://www.google.com/maps/search/?api=1&query=Bohemian%20Spirit&query_place_id=ChIJZd1h-MBYwokR0Ek-F4_Sep8", "latitude": 40.769081, "longitude": -73.95648 }, "geometry": { "type": "Point", "coordinates": [ -73.95648, 40.769081 ] } },
{ "type": "Feature", "properties": { "title": "Sant Ambroeus Madison", "price": "$50–100", "categoryName": "Italian restaurant", "address": "1000 Madison Ave, New York, NY 10075", "neighborhood": "Manhattan", "street": "1000 Madison Ave", "city": "New York", "postalCode": "10075", "state": "New York", "location": { "lat": 40.7754159, "lng": -73.9629886 }, "totalScore": 4.4, "reviewsCount": 791, "url": "https://www.google.com/maps/search/?api=1&query=Sant%20Ambroeus%20Madison&query_place_id=ChIJL-_3K5RYwokRzKguUK0MB-w", "latitude": 40.7754159, "longitude": -73.9629886 }, "geometry": { "type": "Point", "coordinates": [ -73.9629886, 40.7754159 ] } },
{ "type": "Feature", "properties": { "title": "Felice 83", "price": "$50–100", "categoryName": "Italian restaurant", "address": "1593 1st Ave., New York, NY 10028", "neighborhood": "Manhattan", "street": "1593 1st Ave.", "city": "New York", "postalCode": "10028", "state": "New York", "location": { "lat": 40.7749003, "lng": -73.9510928 }, "totalScore": 4.3, "reviewsCount": 592, "url": "https://www.google.com/maps/search/?api=1&query=Felice%2083&query_place_id=ChIJ9T4AfLlYwokRpcucXUsBIVU", "latitude": 40.7749003, "longitude": -73.9510928 }, "geometry": { "type": "Point", "coordinates": [ -73.9510928, 40.7749003 ] } },
{ "type": "Feature", "properties": { "title": "IL Postino", "price": "$100+", "categoryName": "Italian restaurant", "address": "133 E 61st St, New York, NY 10065", "neighborhood": "Manhattan", "street": "133 E 61st St", "city": "New York", "postalCode": "10065", "state": "New York", "location": { "lat": 40.7638212, "lng": -73.9675842 }, "totalScore": 4.4, "reviewsCount": 267, "url": "https://www.google.com/maps/search/?api=1&query=IL%20Postino&query_place_id=ChIJaUXWaOJYwokR2Nh2HZDYYAQ", "latitude": 40.7638212, "longitude": -73.9675842 }, "geometry": { "type": "Point", "coordinates": [ -73.9675842, 40.7638212 ] } },
{ "type": "Feature", "properties": { "title": "TBar", "price": "$100+", "categoryName": "New American restaurant", "address": "116 E 60th St, New York, NY 10022", "neighborhood": "Manhattan", "street": "116 E 60th St", "city": "New York", "postalCode": "10022", "state": "New York", "location": { "lat": 40.763048, "lng": -73.9687092 }, "totalScore": 4.4, "reviewsCount": 353, "url": "https://www.google.com/maps/search/?api=1&query=TBar&query_place_id=ChIJYeDVpepYwokR7q9MIzb8CY4", "latitude": 40.763048, "longitude": -73.9687092 }, "geometry": { "type": "Point", "coordinates": [ -73.9687092, 40.763048 ] } },
{ "type": "Feature", "properties": { "title": "Supper Club By Le Petit Parisien", "price": "$50–100", "categoryName": "French restaurant", "address": "355 E 78th St, New York, NY 10075", "neighborhood": "Manhattan", "street": "355 E 78th St", "city": "New York", "postalCode": "10075", "state": "New York", "location": { "lat": 40.7719575, "lng": -73.9535485 }, "totalScore": 5.0, "reviewsCount": 61, "url": "https://www.google.com/maps/search/?api=1&query=Supper%20Club%20By%20Le%20Petit%20Parisien&query_place_id=ChIJ3fa7yrhYwokRQJLZKpT1uig", "latitude": 40.7719575, "longitude": -73.9535485 }, "geometry": { "type": "Point", "coordinates": [ -73.9535485, 40.7719575 ] } },
{ "type": "Feature", "properties": { "title": "Oda House UES", "price": "$30–50", "categoryName": "Georgian restaurant", "address": "406 E 73rd St, New York, NY 10021", "neighborhood": "Manhattan", "street": "406 E 73rd St", "city": "New York", "postalCode": "10021", "state": "New York", "location": { "lat": 40.7680776, "lng": -73.9549865 }, "totalScore": 4.6, "reviewsCount": 1515, "url": "https://www.google.com/maps/search/?api=1&query=Oda%20House%20UES&query_place_id=ChIJZzj3W8JZwokRi8KiRaRr7SU", "latitude": 40.7680776, "longitude": -73.9549865 }, "geometry": { "type": "Point", "coordinates": [ -73.9549865, 40.7680776 ] } },
{ "type": "Feature", "properties": { "title": "Le Charlot", "price": "$50–100", "categoryName": "French restaurant", "address": "19 E 69th St, New York, NY 10021", "neighborhood": "Manhattan", "street": "19 E 69th St", "city": "New York", "postalCode": "10021", "state": "New York", "location": { "lat": 40.769837, "lng": -73.966488 }, "totalScore": 4.1, "reviewsCount": 333, "url": "https://www.google.com/maps/search/?api=1&query=Le%20Charlot&query_place_id=ChIJ5dtxYexYwokRYcr75mU0R2g", "latitude": 40.769837, "longitude": -73.966488 }, "geometry": { "type": "Point", "coordinates": [ -73.966488, 40.769837 ] } },
{ "type": "Feature", "properties": { "title": "THEP Thai Restaurant", "price": "$20–30", "categoryName": "Thai restaurant", "address": "1439 2nd Ave, New York, NY 10021", "neighborhood": "Manhattan", "street": "1439 2nd Ave", "city": "New York", "postalCode": "10021", "state": "New York", "location": { "lat": 40.7707714, "lng": -73.9572357 }, "totalScore": 4.7, "reviewsCount": 4195, "url": "https://www.google.com/maps/search/?api=1&query=THEP%20Thai%20Restaurant&query_place_id=ChIJz6VeesBYwokRNBYu4Sar8lw", "latitude": 40.7707714, "longitude": -73.9572357 }, "geometry": { "type": "Point", "coordinates": [ -73.9572357, 40.7707714 ] } },
{ "type": "Feature", "properties": { "title": "Campagnola", "price": "$100+", "categoryName": "Italian restaurant", "address": "1382 1st Ave., New York, NY 10021", "neighborhood": "Manhattan", "street": "1382 1st Ave.", "city": "New York", "postalCode": "10021", "state": "New York", "location": { "lat": 40.7688172, "lng": -73.954826 }, "totalScore": 4.6, "reviewsCount": 415, "url": "https://www.google.com/maps/search/?api=1&query=Campagnola&query_place_id=ChIJHZRr3cBYwokRAOvPS6LgVVI", "latitude": 40.7688172, "longitude": -73.954826 }, "geometry": { "type": "Point", "coordinates": [ -73.954826, 40.7688172 ] } },
{ "type": "Feature", "properties": { "title": "Sfoglia", "price": "$50–100", "categoryName": "Italian restaurant", "address": "1402 Lexington Ave, New York, NY 10128", "neighborhood": "Manhattan", "street": "1402 Lexington Ave", "city": "New York", "postalCode": "10128", "state": "New York", "location": { "lat": 40.7834926, "lng": -73.9528729 }, "totalScore": 4.4, "reviewsCount": 312, "url": "https://www.google.com/maps/search/?api=1&query=Sfoglia&query_place_id=ChIJLenzb6RYwokRwsIJcrPNQ5s", "latitude": 40.7834926, "longitude": -73.9528729 }, "geometry": { "type": "Point", "coordinates": [ -73.9528729, 40.7834926 ] } },
{ "type": "Feature", "properties": { "title": "David Burke Tavern", "price": "$50–100", "categoryName": "American restaurant", "address": "135 E 62nd St, New York, NY 10065", "neighborhood": "Manhattan", "street": "135 E 62nd St", "city": "New York", "postalCode": "10065", "state": "New York", "location": { "lat": 40.764442, "lng": -73.967083 }, "totalScore": 4.3, "reviewsCount": 581, "url": "https://www.google.com/maps/search/?api=1&query=David%20Burke%20Tavern&query_place_id=ChIJdcjMFu9YwokR6w1K45p4Q7k", "latitude": 40.764442, "longitude": -73.967083 }, "geometry": { "type": "Point", "coordinates": [ -73.967083, 40.764442 ] } },
{ "type": "Feature", "properties": { "title": "BLUE MEZZE BAR", "price": "$30–50", "categoryName": "Mediterranean restaurant", "address": "1480 2nd Ave, New York, NY 10075", "neighborhood": "Manhattan", "street": "1480 2nd Ave", "city": "New York", "postalCode": "10075", "state": "New York", "location": { "lat": 40.7720721, "lng": -73.9556621 }, "totalScore": 4.7, "reviewsCount": 1316, "url": "https://www.google.com/maps/search/?api=1&query=BLUE%20MEZZE%20BAR&query_place_id=ChIJYwKGx6lZwokR05rPsphAWVE", "latitude": 40.7720721, "longitude": -73.9556621 }, "geometry": { "type": "Point", "coordinates": [ -73.9556621, 40.7720721 ] } },
{ "type": "Feature", "properties": { "title": "Sushi Noz", "price": "$100+", "categoryName": "Sushi restaurant", "address": "181 E 78th St, New York, NY 10075", "neighborhood": "Manhattan", "street": "181 E 78th St", "city": "New York", "postalCode": "10075", "state": "New York", "location": { "lat": 40.7738781, "lng": -73.9581262 }, "totalScore": 4.6, "reviewsCount": 391, "url": "https://www.google.com/maps/search/?api=1&query=Sushi%20Noz&query_place_id=ChIJmUAVNb5YwokRyFZIbhQ_cxM", "latitude": 40.7738781, "longitude": -73.9581262 }, "geometry": { "type": "Point", "coordinates": [ -73.9581262, 40.7738781 ] } },
{ "type": "Feature", "properties": { "title": "Tasca NYC", "price": "$50–100", "categoryName": "Restaurant", "address": "505 Columbus Ave, New York, NY 10024", "neighborhood": "Manhattan", "street": "505 Columbus Ave", "city": "New York", "postalCode": "10024", "state": "New York", "location": { "lat": 40.7853151, "lng": -73.9727841 }, "totalScore": 4.6, "reviewsCount": 292, "url": "https://www.google.com/maps/search/?api=1&query=Tasca%20NYC&query_place_id=ChIJg-QDdKFZwokRumpX4_PxJuU", "latitude": 40.7853151, "longitude": -73.9727841 }, "geometry": { "type": "Point", "coordinates": [ -73.9727841, 40.7853151 ] } },
{ "type": "Feature", "properties": { "title": "La Voglia NYC", "price": "$50–100", "categoryName": "Italian restaurant", "address": "1645 3rd Ave, New York, NY 10128", "neighborhood": "Manhattan", "street": "1645 3rd Ave", "city": "New York", "postalCode": "10128", "state": "New York", "location": { "lat": 40.7826745, "lng": -73.9508638 }, "totalScore": 4.4, "reviewsCount": 330, "url": "https://www.google.com/maps/search/?api=1&query=La%20Voglia%20NYC&query_place_id=ChIJ2Z_EuD9ZwokRB_t-ovxEzxI", "latitude": 40.7826745, "longitude": -73.9508638 }, "geometry": { "type": "Point", "coordinates": [ -73.9508638, 40.7826745 ] } },
{ "type": "Feature", "properties": { "title": "Il Divo", "price": "$50–100", "categoryName": "Italian restaurant", "address": "1347, 2nd Av at, E 71st St, New York, NY 10021", "neighborhood": "Manhattan", "street": "1347, 2nd Av at, E 71st St", "city": "New York", "postalCode": "10021", "state": "NY", "location": { "lat": 40.768135, "lng": -73.959204 }, "totalScore": 4.5, "reviewsCount": 226, "url": "https://www.google.com/maps/search/?api=1&query=Il%20Divo&query_place_id=ChIJST9CcpdZwokR-oklVC1SFJk", "latitude": 40.768135, "longitude": -73.959204 }, "geometry": { "type": "Point", "coordinates": [ -73.959204, 40.768135 ] } },
{ "type": "Feature", "properties": { "title": "Orsay", "price": "$50–100", "categoryName": "French restaurant", "address": "1057 Lexington Ave, New York, NY 10021", "neighborhood": "Manhattan", "street": "1057 Lexington Ave", "city": "New York", "postalCode": "10021", "state": "New York", "location": { "lat": 40.7724056, "lng": -73.9604715 }, "totalScore": 4.3, "reviewsCount": 811, "url": "https://www.google.com/maps/search/?api=1&query=Orsay&query_place_id=ChIJmxNuRpVYwokRHEkGRQ_trfc", "latitude": 40.7724056, "longitude": -73.9604715 }, "geometry": { "type": "Point", "coordinates": [ -73.9604715, 40.7724056 ] } },
{ "type": "Feature", "properties": { "title": "Sushi Ishikawa", "price": "$100+", "categoryName": "Sushi restaurant", "address": "419 E 74th St, New York, NY 10021", "neighborhood": "Manhattan", "street": "419 E 74th St", "city": "New York", "postalCode": "10021", "state": "New York", "location": { "lat": 40.7688801, "lng": -73.9540789 }, "totalScore": 4.6, "reviewsCount": 419, "url": "https://www.google.com/maps/search/?api=1&query=Sushi%20Ishikawa&query_place_id=ChIJ9brg0cBYwokRxWwvwC-cG30", "latitude": 40.7688801, "longitude": -73.9540789 }, "geometry": { "type": "Point", "coordinates": [ -73.9540789, 40.7688801 ] } },
{ "type": "Feature", "properties": { "title": "Perrine", "price": "$50–100", "categoryName": "French restaurant", "address": "2 E 61st St, New York, NY 10065", "neighborhood": "Manhattan", "street": "2 E 61st St", "city": "New York", "postalCode": "10065", "state": "New York", "location": { "lat": 40.7650294, "lng": -73.971668 }, "totalScore": 4.2, "reviewsCount": 223, "url": "https://www.google.com/maps/search/?api=1&query=Perrine&query_place_id=ChIJnwbZLoFZwokRyuCuQpF7F4k", "latitude": 40.7650294, "longitude": -73.971668 }, "geometry": { "type": "Point", "coordinates": [ -73.971668, 40.7650294 ] } },
{ "type": "Feature", "properties": { "title": "QUATORZE", "price": "$50–100", "categoryName": "French restaurant", "address": "1578 1st Ave., New York, NY 10028", "neighborhood": "Manhattan", "street": "1578 1st Ave.", "city": "New York", "postalCode": "10028", "state": "New York", "location": { "lat": 40.7742886, "lng": -73.9509299 }, "totalScore": 4.3, "reviewsCount": 180, "url": "https://www.google.com/maps/search/?api=1&query=QUATORZE&query_place_id=ChIJ8XDAKr9YwokRHkja-tYpvOY", "latitude": 40.7742886, "longitude": -73.9509299 }, "geometry": { "type": "Point", "coordinates": [ -73.9509299, 40.7742886 ] } },
{ "type": "Feature", "properties": { "title": "The Mark Restaurant by Jean-Georges", "price": "$100+", "categoryName": "Eclectic restaurant", "address": "25 E 77th St, New York, NY 10075", "neighborhood": "Manhattan", "street": "25 E 77th St", "city": "New York", "postalCode": "10075", "state": "New York", "location": { "lat": 40.7753416, "lng": -73.9633279 }, "totalScore": 3.4, "reviewsCount": 274, "url": "https://www.google.com/maps/search/?api=1&query=The%20Mark%20Restaurant%20by%20Jean-Georges&query_place_id=ChIJnQLwRJRYwokRAok9jZJTLrY", "latitude": 40.7753416, "longitude": -73.9633279 }, "geometry": { "type": "Point", "coordinates": [ -73.9633279, 40.7753416 ] } },
{ "type": "Feature", "properties": { "title": "Casa Cruz", "price": "$100+", "categoryName": "New American restaurant", "address": "36 E 61st St, New York, NY 10065", "neighborhood": "Manhattan", "street": "36 E 61st St", "city": "New York", "postalCode": "10065", "state": "New York", "location": { "lat": 40.7643816, "lng": -73.9700009 }, "totalScore": 4.0, "reviewsCount": 319, "url": "https://www.google.com/maps/search/?api=1&query=Casa%20Cruz&query_place_id=ChIJ48VsHFNZwokRgSjsT_HiU0U", "latitude": 40.7643816, "longitude": -73.9700009 }, "geometry": { "type": "Point", "coordinates": [ -73.9700009, 40.7643816 ] } },
{ "type": "Feature", "properties": { "title": "Daniel Boulud Kitchen", "price": null, "categoryName": "Restaurant", "address": "60 E 65th St, New York, NY 10065", "neighborhood": "Manhattan", "street": "60 E 65th St", "city": "New York", "postalCode": "10065", "state": "New York", "location": { "lat": 40.7668032, "lng": -73.9677113 }, "totalScore": 4.8, "reviewsCount": 13, "url": "https://www.google.com/maps/search/?api=1&query=Daniel%20Boulud%20Kitchen&query_place_id=ChIJwR6tSyxZwokRuS3ihphhOu8", "latitude": 40.7668032, "longitude": -73.9677113 }, "geometry": { "type": "Point", "coordinates": [ -73.9677113, 40.7668032 ] } },
{ "type": "Feature", "properties": { "title": "Heidelberg Restaurant", "price": "$30–50", "categoryName": "German restaurant", "address": "1648 2nd Ave, New York, NY 10028", "neighborhood": "Manhattan", "street": "1648 2nd Ave", "city": "New York", "postalCode": "10028", "state": "New York", "location": { "lat": 40.7774408, "lng": -73.951729 }, "totalScore": 4.4, "reviewsCount": 1480, "url": "https://www.google.com/maps/search/?api=1&query=Heidelberg%20Restaurant&query_place_id=ChIJFWvro7tYwokRhy_889mPgcg", "latitude": 40.7774408, "longitude": -73.951729 }, "geometry": { "type": "Point", "coordinates": [ -73.951729, 40.7774408 ] } },
{ "type": "Feature", "properties": { "title": "Armani/Ristorante", "price": "$100+", "categoryName": "Italian restaurant", "address": "760 Madison Ave, New York, NY 10065", "neighborhood": "Manhattan", "street": "760 Madison Ave", "city": "New York", "postalCode": "10065", "state": "New York", "location": { "lat": 40.7676012, "lng": -73.9687464 }, "totalScore": 4.5, "reviewsCount": 408, "url": "https://www.google.com/maps/search/?api=1&query=Armani%2FRistorante&query_place_id=ChIJeSZBWPpYwokR8YKIpFMSEd0", "latitude": 40.7676012, "longitude": -73.9687464 }, "geometry": { "type": "Point", "coordinates": [ -73.9687464, 40.7676012 ] } },
{ "type": "Feature", "properties": { "title": "Philippe Chow", "price": "$100+", "categoryName": "Fine dining restaurant", "address": "33 E 60th St, New York, NY 10065", "neighborhood": "Manhattan", "street": "33 E 60th St", "city": "New York", "postalCode": "10065", "state": "New York", "location": { "lat": 40.7641695, "lng": -73.9703442 }, "totalScore": 4.3, "reviewsCount": 1241, "url": "https://www.google.com/maps/search/?api=1&query=Philippe%20Chow&query_place_id=ChIJcYjz5e9YwokRO6lR3XH7PKA", "latitude": 40.7641695, "longitude": -73.9703442 }, "geometry": { "type": "Point", "coordinates": [ -73.9703442, 40.7641695 ] } },
{ "type": "Feature", "properties": { "title": "La Goulue New York", "price": "$100+", "categoryName": "French restaurant", "address": "29 E 61st St, New York, NY 10065", "neighborhood": "Manhattan", "street": "29 E 61st St", "city": "New York", "postalCode": "10065", "state": "New York", "location": { "lat": 40.7648, "lng": -73.9699213 }, "totalScore": 4.4, "reviewsCount": 386, "url": "https://www.google.com/maps/search/?api=1&query=La%20Goulue%20New%20York&query_place_id=ChIJkREGx-9YwokRQ2Jh1brPZ0k", "latitude": 40.7648, "longitude": -73.9699213 }, "geometry": { "type": "Point", "coordinates": [ -73.9699213, 40.7648 ] } },
{ "type": "Feature", "properties": { "title": "Osteria Cotta", "price": "$30–50", "categoryName": "Italian restaurant", "address": "513 Columbus Ave, New York, NY 10024", "neighborhood": "Manhattan", "street": "513 Columbus Ave", "city": "New York", "postalCode": "10024", "state": "New York", "location": { "lat": 40.7855246, "lng": -73.9726719 }, "totalScore": 4.4, "reviewsCount": 1117, "url": "https://www.google.com/maps/search/?api=1&query=Osteria%20Cotta&query_place_id=ChIJOb-eH4VYwokRkyzosmvD_sk", "latitude": 40.7855246, "longitude": -73.9726719 }, "geometry": { "type": "Point", "coordinates": [ -73.9726719, 40.7855246 ] } },
{ "type": "Feature", "properties": { "title": "Persepolis", "price": "$30–50", "categoryName": "Persian restaurant", "address": "1407 2nd avenue , between 73rd st &, E 74th St, New York, NY 10021", "neighborhood": "Manhattan", "street": "1407 2nd avenue , between 73rd st &, E 74th St", "city": "New York", "postalCode": "10021", "state": "NY", "location": { "lat": 40.7698097, "lng": -73.9579557 }, "totalScore": 4.2, "reviewsCount": 704, "url": "https://www.google.com/maps/search/?api=1&query=Persepolis&query_place_id=ChIJ68H4QMBYwokR42l6M4OIUCM", "latitude": 40.7698097, "longitude": -73.9579557 }, "geometry": { "type": "Point", "coordinates": [ -73.9579557, 40.7698097 ] } },
{ "type": "Feature", "properties": { "title": "Piccola Cucina Uptown", "price": "$30–50", "categoryName": "Italian restaurant", "address": "106 E 60th St, New York, NY 10022", "neighborhood": "Manhattan", "street": "106 E 60th St", "city": "New York", "postalCode": "10022", "state": "New York", "location": { "lat": 40.7632468, "lng": -73.9689825 }, "totalScore": 4.6, "reviewsCount": 1753, "url": "https://www.google.com/maps/search/?api=1&query=Piccola%20Cucina%20Uptown&query_place_id=ChIJZdSBiO9YwokRWADMuEN-b64", "latitude": 40.7632468, "longitude": -73.9689825 }, "geometry": { "type": "Point", "coordinates": [ -73.9689825, 40.7632468 ] } },
{ "type": "Feature", "properties": { "title": "The Milling Room", "price": "$50–100", "categoryName": "New American restaurant", "address": "446 Columbus Ave, New York, NY 10024", "neighborhood": "Manhattan", "street": "446 Columbus Ave", "city": "New York", "postalCode": "10024", "state": "New York", "location": { "lat": 40.783747, "lng": -73.974468 }, "totalScore": 4.4, "reviewsCount": 995, "url": "https://www.google.com/maps/search/?api=1&query=The%20Milling%20Room&query_place_id=ChIJUe3TgIVYwokR5cm1iYg1TAU", "latitude": 40.783747, "longitude": -73.974468 }, "geometry": { "type": "Point", "coordinates": [ -73.974468, 40.783747 ] } },
{ "type": "Feature", "properties": { "title": "Lusardi's", "price": "$50–100", "categoryName": "Italian restaurant", "address": "1494 2nd Ave, New York, NY 10075", "neighborhood": "Manhattan", "street": "1494 2nd Ave", "city": "New York", "postalCode": "10075", "state": "New York", "location": { "lat": 40.7724018, "lng": -73.9554555 }, "totalScore": 4.6, "reviewsCount": 289, "url": "https://www.google.com/maps/search/?api=1&query=Lusardi's&query_place_id=ChIJVdduFL9YwokRGn2EFWZDLBs", "latitude": 40.7724018, "longitude": -73.9554555 }, "geometry": { "type": "Point", "coordinates": [ -73.9554555, 40.7724018 ] } },
{ "type": "Feature", "properties": { "title": "JoJo by Jean-Georges", "price": "$100+", "categoryName": "Organic restaurant", "address": "160 E 64th St, New York, NY 10065", "neighborhood": "Manhattan", "street": "160 E 64th St", "city": "New York", "postalCode": "10065", "state": "New York", "location": { "lat": 40.7650895, "lng": -73.9657019 }, "totalScore": 4.2, "reviewsCount": 628, "url": "https://www.google.com/maps/search/?api=1&query=JoJo%20by%20Jean-Georges&query_place_id=ChIJI9k11O5YwokRJXZKb8r3CoQ", "latitude": 40.7650895, "longitude": -73.9657019 }, "geometry": { "type": "Point", "coordinates": [ -73.9657019, 40.7650895 ] } },
{ "type": "Feature", "properties": { "title": "Table d'Hôte", "price": "$50–100", "categoryName": "French restaurant", "address": "44 E 92nd St, New York, NY 10128", "neighborhood": "Manhattan", "street": "44 E 92nd St", "city": "New York", "postalCode": "10128", "state": "New York", "location": { "lat": 40.7844792, "lng": -73.9558481 }, "totalScore": 4.6, "reviewsCount": 166, "url": "https://www.google.com/maps/search/?api=1&query=Table%20d'H%C3%B4te&query_place_id=ChIJIRWoy6NYwokROi7-mQy8-44", "latitude": 40.7844792, "longitude": -73.9558481 }, "geometry": { "type": "Point", "coordinates": [ -73.9558481, 40.7844792 ] } },
{ "type": "Feature", "properties": { "title": "Moti Mahal Delux", "price": "$$", "categoryName": "Indian restaurant", "address": "1149 1st Ave., New York, NY 10065", "neighborhood": "Manhattan", "street": "1149 1st Ave.", "city": "New York", "postalCode": "10065", "state": "New York", "location": { "lat": 40.7621148, "lng": -73.9603867 }, "totalScore": 4.2, "reviewsCount": 764, "url": "https://www.google.com/maps/search/?api=1&query=Moti%20Mahal%20Delux&query_place_id=ChIJA3C4DuhYwokR2UT5yg9AZR0", "latitude": 40.7621148, "longitude": -73.9603867 }, "geometry": { "type": "Point", "coordinates": [ -73.9603867, 40.7621148 ] } },
{ "type": "Feature", "properties": { "title": "Marea", "price": "$$$$", "categoryName": "Restaurant", "address": "240 Central Park S, New York, NY 10019", "neighborhood": "Manhattan", "street": "240 Central Park S", "city": "New York", "postalCode": "10019", "state": "New York", "location": { "lat": 40.7674251, "lng": -73.9811137 }, "totalScore": 4.5, "reviewsCount": 2724, "url": "https://www.google.com/maps/search/?api=1&query=Marea&query_place_id=ChIJvWSDS_ZYwokRiG9D395loxo", "latitude": 40.7674251, "longitude": -73.9811137 }, "geometry": { "type": "Point", "coordinates": [ -73.9811137, 40.7674251 ] } },
{ "type": "Feature", "properties": { "title": "Essential by Christophe", "price": "$100+", "categoryName": "French restaurant", "address": "103 W 77th St, New York, NY 10024", "neighborhood": "Manhattan", "street": "103 W 77th St", "city": "New York", "postalCode": "10024", "state": "New York", "location": { "lat": 40.7809576, "lng": -73.9766017 }, "totalScore": 4.8, "reviewsCount": 307, "url": "https://www.google.com/maps/search/?api=1&query=Essential%20by%20Christophe&query_place_id=ChIJw6JyhoxZwokR3mKl4FLg5rM", "latitude": 40.7809576, "longitude": -73.9766017 }, "geometry": { "type": "Point", "coordinates": [ -73.9766017, 40.7809576 ] } },
{ "type": "Feature", "properties": { "title": "53", "price": "$$$", "categoryName": "Restaurant", "address": "53 W 53rd St, New York, NY 10019", "neighborhood": "Manhattan", "street": "53 W 53rd St", "city": "New York", "postalCode": "10019", "state": "New York", "location": { "lat": 40.7617694, "lng": -73.9780863 }, "totalScore": 4.3, "reviewsCount": 457, "url": "https://www.google.com/maps/search/?api=1&query=53&query_place_id=ChIJQ2rWiydZwokRKb1IcXrXZ-E", "latitude": 40.7617694, "longitude": -73.9780863 }, "geometry": { "type": "Point", "coordinates": [ -73.9780863, 40.7617694 ] } },
{ "type": "Feature", "properties": { "title": "Aquavit", "price": "$100+", "categoryName": "Scandinavian restaurant", "address": "65 E 55th St, New York, NY 10022", "neighborhood": "Manhattan", "street": "65 E 55th St", "city": "New York", "postalCode": "10022", "state": "New York", "location": { "lat": 40.7608694, "lng": -73.9722777 }, "totalScore": 4.6, "reviewsCount": 1077, "url": "https://www.google.com/maps/search/?api=1&query=Aquavit&query_place_id=ChIJWfonJ_tYwokRwIGb6Im403E", "latitude": 40.7608694, "longitude": -73.9722777 }, "geometry": { "type": "Point", "coordinates": [ -73.9722777, 40.7608694 ] } },
{ "type": "Feature", "properties": { "title": "Majorelle", "price": "$100+", "categoryName": "Haute French restaurant", "address": "28 E 63rd St, New York, NY 10065", "neighborhood": "Manhattan", "street": "28 E 63rd St", "city": "New York", "postalCode": "10065", "state": "New York", "location": { "lat": 40.7657388, "lng": -73.9692216 }, "totalScore": 4.6, "reviewsCount": 228, "url": "https://www.google.com/maps/search/?api=1&query=Majorelle&query_place_id=ChIJc2HLTe5YwokR9etGl2lOIIE", "latitude": 40.7657388, "longitude": -73.9692216 }, "geometry": { "type": "Point", "coordinates": [ -73.9692216, 40.7657388 ] } },
{ "type": "Feature", "properties": { "title": "Mission Ceviche Upper East Side", "price": "$100+", "categoryName": "Peruvian restaurant", "address": "1400 2nd Ave, New York, NY 10021", "neighborhood": "Manhattan", "street": "1400 2nd Ave", "city": "New York", "postalCode": "10021", "state": "New York", "location": { "lat": 40.7691005, "lng": -73.9578631 }, "totalScore": 4.5, "reviewsCount": 2604, "url": "https://www.google.com/maps/search/?api=1&query=Mission%20Ceviche%20Upper%20East%20Side&query_place_id=ChIJEXPLsaFZwokRggZzIVKeiPM", "latitude": 40.7691005, "longitude": -73.9578631 }, "geometry": { "type": "Point", "coordinates": [ -73.9578631, 40.7691005 ] } },
{ "type": "Feature", "properties": { "title": "Café Boulud", "price": "$100+", "categoryName": "French restaurant", "address": "100 E 63rd St, New York, NY 10065", "neighborhood": "Manhattan", "street": "100 E 63rd St", "city": "New York", "postalCode": "10065", "state": "New York", "location": { "lat": 40.7650665, "lng": -73.9676538 }, "totalScore": 4.5, "reviewsCount": 695, "url": "https://www.google.com/maps/search/?api=1&query=Caf%C3%A9%20Boulud&query_place_id=ChIJCcAxi5RYwokRdUqdw5_FHIk", "latitude": 40.7650665, "longitude": -73.9676538 }, "geometry": { "type": "Point", "coordinates": [ -73.9676538, 40.7650665 ] } },
{ "type": "Feature", "properties": { "title": "The Common", "price": "$10–20", "categoryName": "Breakfast restaurant", "address": "first floor, 9406 3rd Ave, Brooklyn, NY 11209", "neighborhood": "Fort Hamilton", "street": "first floor, 9406 3rd Ave", "city": "Brooklyn", "postalCode": "11209", "state": "New York", "location": { "lat": 40.6178368, "lng": -74.0335696 }, "totalScore": 4.8, "reviewsCount": 522, "url": "https://www.google.com/maps/search/?api=1&query=The%20Common&query_place_id=ChIJX7Tv1xlhwokRQbVL1ZTyrfE", "latitude": 40.6178368, "longitude": -74.0335696 }, "geometry": { "type": "Point", "coordinates": [ -74.0335696, 40.6178368 ] } },
{ "type": "Feature", "properties": { "title": "Mello Bistro", "price": "$50–100", "categoryName": "Bistro", "address": "1233 Bay St, Staten Island, NY 10305", "neighborhood": "Rosebank", "street": "1233 Bay St", "city": "Staten Island", "postalCode": "10305", "state": "New York", "location": { "lat": 40.6132965, "lng": -74.0653653 }, "totalScore": 5.0, "reviewsCount": 128, "url": "https://www.google.com/maps/search/?api=1&query=Mello%20Bistro&query_place_id=ChIJ67TWl1ZPwokRWOVfW21l1o0", "latitude": 40.6132965, "longitude": -74.0653653 }, "geometry": { "type": "Point", "coordinates": [ -74.0653653, 40.6132965 ] } },
{ "type": "Feature", "properties": { "title": "Seppe Pizza Bar", "price": "$$", "categoryName": "Pizza restaurant", "address": "3 Navy Pier Ct, Staten Island, NY 10304", "neighborhood": "Stapleton Heights", "street": "3 Navy Pier Ct", "city": "Staten Island", "postalCode": "10304", "state": "New York", "location": { "lat": 40.6290683, "lng": -74.074393 }, "totalScore": 4.5, "reviewsCount": 490, "url": "https://www.google.com/maps/search/?api=1&query=Seppe%20Pizza%20Bar&query_place_id=ChIJUUYYg7VPwokRRnuw5K3Ub1U", "latitude": 40.6290683, "longitude": -74.074393 }, "geometry": { "type": "Point", "coordinates": [ -74.074393, 40.6290683 ] } },
{ "type": "Feature", "properties": { "title": "Ayat", "price": "$20–30", "categoryName": "Middle Eastern restaurant", "address": "8504 3rd Ave, Brooklyn, NY 11209", "neighborhood": "Bay Ridge", "street": "8504 3rd Ave", "city": "Brooklyn", "postalCode": "11209", "state": "New York", "location": { "lat": 40.6242189, "lng": -74.0309273 }, "totalScore": 4.6, "reviewsCount": 1679, "url": "https://www.google.com/maps/search/?api=1&query=Ayat&query_place_id=ChIJBSKRV89PwokRcofsyKk26CM", "latitude": 40.6242189, "longitude": -74.0309273 }, "geometry": { "type": "Point", "coordinates": [ -74.0309273, 40.6242189 ] } },
{ "type": "Feature", "properties": { "title": "Elia", "price": "$50–100", "categoryName": "Greek restaurant", "address": "8611 3rd Ave, Brooklyn, NY 11209", "neighborhood": "Fort Hamilton", "street": "8611 3rd Ave", "city": "Brooklyn", "postalCode": "11209", "state": "New York", "location": { "lat": 40.6230315, "lng": -74.0309073 }, "totalScore": 4.4, "reviewsCount": 185, "url": "https://www.google.com/maps/search/?api=1&query=Elia&query_place_id=ChIJg-aXsYpPwokRoylBn54vLsE", "latitude": 40.6230315, "longitude": -74.0309073 }, "geometry": { "type": "Point", "coordinates": [ -74.0309073, 40.6230315 ] } },
{ "type": "Feature", "properties": { "title": "Tanoreen", "price": "$$", "categoryName": "Middle Eastern restaurant", "address": "7523 3rd Ave, Brooklyn, NY 11209", "neighborhood": "Bay Ridge", "street": "7523 3rd Ave", "city": "Brooklyn", "postalCode": "11209", "state": "New York", "location": { "lat": 40.6307916, "lng": -74.0277865 }, "totalScore": 4.8, "reviewsCount": 2819, "url": "https://www.google.com/maps/search/?api=1&query=Tanoreen&query_place_id=ChIJoWqUUFhFwokRgLdrJbh0bBg", "latitude": 40.6307916, "longitude": -74.0277865 }, "geometry": { "type": "Point", "coordinates": [ -74.0277865, 40.6307916 ] } },
{ "type": "Feature", "properties": { "title": "Beets and Carrots", "price": "$30–50", "categoryName": "New American restaurant", "address": "9905 3rd Ave, Brooklyn, NY 11209", "neighborhood": "Fort Hamilton", "street": "9905 3rd Ave", "city": "Brooklyn", "postalCode": "11209", "state": "New York", "location": { "lat": 40.6140601, "lng": -74.0348066 }, "totalScore": 4.7, "reviewsCount": 360, "url": "https://www.google.com/maps/search/?api=1&query=Beets%20and%20Carrots&query_place_id=ChIJmyJUp4hPwokRTWnEAlPjb7w", "latitude": 40.6140601, "longitude": -74.0348066 }, "geometry": { "type": "Point", "coordinates": [ -74.0348066, 40.6140601 ] } },
{ "type": "Feature", "properties": { "title": "Lakruwana Restaurant", "price": "$20–30", "categoryName": "Sri Lankan restaurant", "address": "668 Bay St, Staten Island, NY 10304", "neighborhood": "Stapleton Heights", "street": "668 Bay St", "city": "Staten Island", "postalCode": "10304", "state": "New York", "location": { "lat": 40.6257501, "lng": -74.0753052 }, "totalScore": 4.5, "reviewsCount": 946, "url": "https://www.google.com/maps/search/?api=1&query=Lakruwana%20Restaurant&query_place_id=ChIJ03HMlbRPwokR4dG6Dhon-A4", "latitude": 40.6257501, "longitude": -74.0753052 }, "geometry": { "type": "Point", "coordinates": [ -74.0753052, 40.6257501 ] } },
{ "type": "Feature", "properties": { "title": "Vinum Tuscan Restaurant and Wine Bar", "price": "$50–100", "categoryName": "Restaurant", "address": "704 Bay St, Staten Island, NY 10304", "neighborhood": "Clifton", "street": "704 Bay St", "city": "Staten Island", "postalCode": "10304", "state": "New York", "location": { "lat": 40.6248331, "lng": -74.074824 }, "totalScore": 4.6, "reviewsCount": 398, "url": "https://www.google.com/maps/search/?api=1&query=Vinum%20Tuscan%20Restaurant%20and%20Wine%20Bar&query_place_id=ChIJGRHYnLRPwokR2o1E1ZQm1Eg", "latitude": 40.6248331, "longitude": -74.074824 }, "geometry": { "type": "Point", "coordinates": [ -74.074824, 40.6248331 ] } },
{ "type": "Feature", "properties": { "title": "COTE Korean Steakhouse", "price": "$100+", "categoryName": "Steak house", "address": "16 W 22nd St, New York, NY 10010", "neighborhood": "Manhattan", "street": "16 W 22nd St", "city": "New York", "postalCode": "10010", "state": "New York", "location": { "lat": 40.7413041, "lng": -73.9912527 }, "totalScore": 4.6, "reviewsCount": 3516, "url": "https://www.google.com/maps/search/?api=1&query=COTE%20Korean%20Steakhouse&query_place_id=ChIJQ1R3hKNZwokRQM4wbIrc00o", "latitude": 40.7413041, "longitude": -73.9912527 }, "geometry": { "type": "Point", "coordinates": [ -73.9912527, 40.7413041 ] } },
{ "type": "Feature", "properties": { "title": "Gramercy Tavern", "price": "$$$$", "categoryName": "Restaurant", "address": "42 E 20th St, New York, NY 10003", "neighborhood": "Manhattan", "street": "42 E 20th St", "city": "New York", "postalCode": "10003", "state": "New York", "location": { "lat": 40.7384555, "lng": -73.9885064 }, "totalScore": 4.6, "reviewsCount": 4129, "url": "https://www.google.com/maps/search/?api=1&query=Gramercy%20Tavern&query_place_id=ChIJvSQIgqFZwokRFYQbJdzceSs", "latitude": 40.7384555, "longitude": -73.9885064 }, "geometry": { "type": "Point", "coordinates": [ -73.9885064, 40.7384555 ] } },
{ "type": "Feature", "properties": { "title": "Le Jardinier", "price": "$100+", "categoryName": "French restaurant", "address": "610 Lexington Ave, New York, NY 10022", "neighborhood": "Manhattan", "street": "610 Lexington Ave", "city": "New York", "postalCode": "10022", "state": "New York", "location": { "lat": 40.7583107, "lng": -73.9713452 }, "totalScore": 4.4, "reviewsCount": 324, "url": "https://www.google.com/maps/search/?api=1&query=Le%20Jardinier&query_place_id=ChIJKdcKCelZwokRdFHp3hzUKok", "latitude": 40.7583107, "longitude": -73.9713452 }, "geometry": { "type": "Point", "coordinates": [ -73.9713452, 40.7583107 ] } },
{ "type": "Feature", "properties": { "title": "Meadowsweet", "price": "$50–100", "categoryName": "New American restaurant", "address": "149 Broadway, Brooklyn, NY 11211", "neighborhood": "Williamsburg", "street": "149 Broadway", "city": "Brooklyn", "postalCode": "11211", "state": "New York", "location": { "lat": 40.7104294, "lng": -73.9631219 }, "totalScore": 4.6, "reviewsCount": 986, "url": "https://www.google.com/maps/search/?api=1&query=Meadowsweet&query_place_id=ChIJwXUoA99bwokRU2bF-gdB25I", "latitude": 40.7104294, "longitude": -73.9631219 }, "geometry": { "type": "Point", "coordinates": [ -73.9631219, 40.7104294 ] } },
{ "type": "Feature", "properties": { "title": "Junoon", "price": "$100+", "categoryName": "Indian restaurant", "address": "19 W 24th St, New York, NY 10010", "neighborhood": "Manhattan", "street": "19 W 24th St", "city": "New York", "postalCode": "10010", "state": "New York", "location": { "lat": 40.7430703, "lng": -73.9903968 }, "totalScore": 4.3, "reviewsCount": 3553, "url": "https://www.google.com/maps/search/?api=1&query=Junoon&query_place_id=ChIJD4wsQaRZwokRQIswTkF3YIc", "latitude": 40.7430703, "longitude": -73.9903968 }, "geometry": { "type": "Point", "coordinates": [ -73.9903968, 40.7430703 ] } },
{ "type": "Feature", "properties": { "title": "Vestry", "price": "$100+", "categoryName": "Restaurant", "address": "246 Spring St, New York, NY 10013", "neighborhood": "Manhattan", "street": "246 Spring St", "city": "New York", "postalCode": "10013", "state": "New York", "location": { "lat": 40.7253081, "lng": -74.005407 }, "totalScore": 4.0, "reviewsCount": 325, "url": "https://www.google.com/maps/search/?api=1&query=Vestry&query_place_id=ChIJlbX3f0pZwokRSOYdpMm8GAs", "latitude": 40.7253081, "longitude": -74.005407 }, "geometry": { "type": "Point", "coordinates": [ -74.005407, 40.7253081 ] } },
{ "type": "Feature", "properties": { "title": "One White Street", "price": "$100+", "categoryName": "Restaurant", "address": "1 White St, New York, NY 10013", "neighborhood": "Manhattan", "street": "1 White St", "city": "New York", "postalCode": "10013", "state": "New York", "location": { "lat": 40.7192639, "lng": -74.0059523 }, "totalScore": 4.4, "reviewsCount": 280, "url": "https://www.google.com/maps/search/?api=1&query=One%20White%20Street&query_place_id=ChIJISXTwWJZwokRIok4xyMeb6g", "latitude": 40.7192639, "longitude": -74.0059523 }, "geometry": { "type": "Point", "coordinates": [ -74.0059523, 40.7192639 ] } },
{ "type": "Feature", "properties": { "title": "Luthun", "price": "$100+", "categoryName": "New American restaurant", "address": "432 E 13th St, New York, NY 10009", "neighborhood": "Manhattan", "street": "432 E 13th St", "city": "New York", "postalCode": "10009", "state": "New York", "location": { "lat": 40.7299112, "lng": -73.981883 }, "totalScore": 4.7, "reviewsCount": 251, "url": "https://www.google.com/maps/search/?api=1&query=Luthun&query_place_id=ChIJ2V6T8ixZwokRlJ9kJkQmcmY", "latitude": 40.7299112, "longitude": -73.981883 }, "geometry": { "type": "Point", "coordinates": [ -73.981883, 40.7299112 ] } },
{ "type": "Feature", "properties": { "title": "Le Coucou", "price": "$$$$", "categoryName": "Restaurant", "address": "138 Lafayette St, New York, NY 10013", "neighborhood": "Manhattan", "street": "138 Lafayette St", "city": "New York", "postalCode": "10013", "state": "New York", "location": { "lat": 40.7191167, "lng": -74.0001861 }, "totalScore": 4.5, "reviewsCount": 1753, "url": "https://www.google.com/maps/search/?api=1&query=Le%20Coucou&query_place_id=ChIJyw5j84lZwokRnUI_UknPSNA", "latitude": 40.7191167, "longitude": -74.0001861 }, "geometry": { "type": "Point", "coordinates": [ -74.0001861, 40.7191167 ] } },
{ "type": "Feature", "properties": { "title": "Eleven Madison Park", "price": "$100+", "categoryName": "Fine dining restaurant", "address": "11 Madison Ave, New York, NY 10010", "neighborhood": "Manhattan", "street": "11 Madison Ave", "city": "New York", "postalCode": "10010", "state": "New York", "location": { "lat": 40.7416519, "lng": -73.9872353 }, "totalScore": 4.4, "reviewsCount": 2884, "url": "https://www.google.com/maps/search/?api=1&query=Eleven%20Madison%20Park&query_place_id=ChIJEWbXz6ZZwokRLKmKrtPfVFY", "latitude": 40.7416519, "longitude": -73.9872353 }, "geometry": { "type": "Point", "coordinates": [ -73.9872353, 40.7416519 ] } },
{ "type": "Feature", "properties": { "title": "Clover Hill", "price": "$100+", "categoryName": "New American restaurant", "address": "20 Columbia Pl, Brooklyn, NY 11201", "neighborhood": "Brooklyn Heights", "street": "20 Columbia Pl", "city": "Brooklyn", "postalCode": "11201", "state": "New York", "location": { "lat": 40.6931707, "lng": -73.9987297 }, "totalScore": 4.6, "reviewsCount": 236, "url": "https://www.google.com/maps/search/?api=1&query=Clover%20Hill&query_place_id=ChIJHzZ2mzxbwokR3LxA89MHy78", "latitude": 40.6931707, "longitude": -73.9987297 }, "geometry": { "type": "Point", "coordinates": [ -73.9987297, 40.6931707 ] } },
{ "type": "Feature", "properties": { "title": "Kochi", "price": "$100+", "categoryName": "Korean restaurant", "address": "652 10th Ave, New York, NY 10036", "neighborhood": "Manhattan", "street": "652 10th Ave", "city": "New York", "postalCode": "10036", "state": "New York", "location": { "lat": 40.7619926, "lng": -73.9934692 }, "totalScore": 4.6, "reviewsCount": 814, "url": "https://www.google.com/maps/search/?api=1&query=Kochi&query_place_id=ChIJN8SzjFRZwokR-b5lqNXcg44", "latitude": 40.7619926, "longitude": -73.9934692 }, "geometry": { "type": "Point", "coordinates": [ -73.9934692, 40.7619926 ] } },
{ "type": "Feature", "properties": { "title": "Estela", "price": "$100+", "categoryName": "Restaurant", "address": "47 E Houston St 1st floor, New York, NY 10012", "neighborhood": "Manhattan", "street": "47 E Houston St 1st floor", "city": "New York", "postalCode": "10012", "state": "New York", "location": { "lat": 40.7246413, "lng": -73.994739 }, "totalScore": 4.5, "reviewsCount": 1294, "url": "https://www.google.com/maps/search/?api=1&query=Estela&query_place_id=ChIJf3f-f4VZwokRcBCEciTOGRQ", "latitude": 40.7246413, "longitude": -73.994739 }, "geometry": { "type": "Point", "coordinates": [ -73.994739, 40.7246413 ] } },
{ "type": "Feature", "properties": { "title": "l’abeille", "price": "$100+", "categoryName": "French restaurant", "address": "412 Greenwich St, New York, NY 10013", "neighborhood": "Manhattan", "street": "412 Greenwich St", "city": "New York", "postalCode": "10013", "state": "New York", "location": { "lat": 40.7220453, "lng": -74.0099342 }, "totalScore": 4.6, "reviewsCount": 206, "url": "https://www.google.com/maps/search/?api=1&query=l%E2%80%99abeille&query_place_id=ChIJq75Ur-tZwokRo7I_F_PhlcU", "latitude": 40.7220453, "longitude": -74.0099342 }, "geometry": { "type": "Point", "coordinates": [ -74.0099342, 40.7220453 ] } },
{ "type": "Feature", "properties": { "title": "Frevo", "price": "$100+", "categoryName": "Fine dining restaurant", "address": "48 W 8th St, New York, NY 10011", "neighborhood": "Manhattan", "street": "48 W 8th St", "city": "New York", "postalCode": "10011", "state": "New York", "location": { "lat": 40.7331351, "lng": -73.9986886 }, "totalScore": 4.8, "reviewsCount": 632, "url": "https://www.google.com/maps/search/?api=1&query=Frevo&query_place_id=ChIJL6-NTmBZwokRGacx3GWq3D0", "latitude": 40.7331351, "longitude": -73.9986886 }, "geometry": { "type": "Point", "coordinates": [ -73.9986886, 40.7331351 ] } },
{ "type": "Feature", "properties": { "title": "Jean-Georges", "price": "$100+", "categoryName": "Haute French restaurant", "address": "1 Central Park W, New York, NY 10023", "neighborhood": "Manhattan", "street": "1 Central Park W", "city": "New York", "postalCode": "10023", "state": "New York", "location": { "lat": 40.7690576, "lng": -73.9815796 }, "totalScore": 4.5, "reviewsCount": 1328, "url": "https://www.google.com/maps/search/?api=1&query=Jean-Georges&query_place_id=ChIJh5JzbfZYwokRR7KqJOksL7Y", "latitude": 40.7690576, "longitude": -73.9815796 }, "geometry": { "type": "Point", "coordinates": [ -73.9815796, 40.7690576 ] } },
{ "type": "Feature", "properties": { "title": "Aska", "price": "$100+", "categoryName": "Scandinavian restaurant", "address": "47 S 5th St, Brooklyn, NY 11249", "neighborhood": "Williamsburg", "street": "47 S 5th St", "city": "Brooklyn", "postalCode": "11249", "state": "New York", "location": { "lat": 40.7122907, "lng": -73.966422 }, "totalScore": 4.6, "reviewsCount": 450, "url": "https://www.google.com/maps/search/?api=1&query=Aska&query_place_id=ChIJUwatTl1ZwokRUDXxYoFa-hk", "latitude": 40.7122907, "longitude": -73.966422 }, "geometry": { "type": "Point", "coordinates": [ -73.966422, 40.7122907 ] } },
{ "type": "Feature", "properties": { "title": "ATOMIX", "price": "$100+", "categoryName": "Korean restaurant", "address": "104 E 30th St, New York, NY 10016", "neighborhood": "Manhattan", "street": "104 E 30th St", "city": "New York", "postalCode": "10016", "state": "New York", "location": { "lat": 40.7442317, "lng": -73.9828502 }, "totalScore": 4.8, "reviewsCount": 389, "url": "https://www.google.com/maps/search/?api=1&query=ATOMIX&query_place_id=ChIJ3bmAHghZwokRRXYO57yLuss", "latitude": 40.7442317, "longitude": -73.9828502 }, "geometry": { "type": "Point", "coordinates": [ -73.9828502, 40.7442317 ] } },
{ "type": "Feature", "properties": { "title": "Le Bernardin", "price": "$100+", "categoryName": "French restaurant", "address": "155 W 51st St, New York, NY 10019", "neighborhood": "Manhattan", "street": "155 W 51st St", "city": "New York", "postalCode": "10019", "state": "New York", "location": { "lat": 40.7614218, "lng": -73.9817558 }, "totalScore": 4.6, "reviewsCount": 3526, "url": "https://www.google.com/maps/search/?api=1&query=Le%20Bernardin&query_place_id=ChIJV7QQ6kdZwokRax4615zpSGU", "latitude": 40.7614218, "longitude": -73.9817558 }, "geometry": { "type": "Point", "coordinates": [ -73.9817558, 40.7614218 ] } },
{ "type": "Feature", "properties": { "title": "Daniel", "price": "$100+", "categoryName": "French restaurant", "address": "60 E 65th St, New York, NY 10065", "neighborhood": "Manhattan", "street": "60 E 65th St", "city": "New York", "postalCode": "10065", "state": "New York", "location": { "lat": 40.7668083, "lng": -73.9675769 }, "totalScore": 4.6, "reviewsCount": 2183, "url": "https://www.google.com/maps/search/?api=1&query=Daniel&query_place_id=ChIJ09ZGju5YwokRXOcNC23JRwk", "latitude": 40.7668083, "longitude": -73.9675769 }, "geometry": { "type": "Point", "coordinates": [ -73.9675769, 40.7668083 ] } },
{ "type": "Feature", "properties": { "title": "Per Se", "price": "$100+", "categoryName": "French restaurant", "address": "10 Columbus Cir, New York, NY 10019", "neighborhood": "Manhattan", "street": "10 Columbus Cir", "city": "New York", "postalCode": "10019", "state": "New York", "location": { "lat": 40.7682178, "lng": -73.9828988 }, "totalScore": 4.5, "reviewsCount": 1793, "url": "https://www.google.com/maps/search/?api=1&query=Per%20Se&query_place_id=ChIJp3PsL_ZYwokRZYqs_40RJF4", "latitude": 40.7682178, "longitude": -73.9828988 }, "geometry": { "type": "Point", "coordinates": [ -73.9828988, 40.7682178 ] } },
{ "type": "Feature", "properties": { "title": "The Modern", "price": "$$$$", "categoryName": "Restaurant", "address": "9 W 53rd St, New York, NY 10019", "neighborhood": "Manhattan", "street": "9 W 53rd St", "city": "New York", "postalCode": "10019", "state": "New York", "location": { "lat": 40.761081, "lng": -73.976753 }, "totalScore": 4.6, "reviewsCount": 2337, "url": "https://www.google.com/maps/search/?api=1&query=The%20Modern&query_place_id=ChIJMW-gxPtYwokRzDlnsRgq9rA", "latitude": 40.761081, "longitude": -73.976753 }, "geometry": { "type": "Point", "coordinates": [ -73.976753, 40.761081 ] } },
{ "type": "Feature", "properties": { "title": "Gabriel Kreuther", "price": "$100+", "categoryName": "Modern French restaurant", "address": "41 W 42nd St, New York, NY 10036", "neighborhood": "Manhattan", "street": "41 W 42nd St", "city": "New York", "postalCode": "10036", "state": "New York", "location": { "lat": 40.7545381, "lng": -73.9825026 }, "totalScore": 4.6, "reviewsCount": 1159, "url": "https://www.google.com/maps/search/?api=1&query=Gabriel%20Kreuther&query_place_id=ChIJw_TGEwBZwokR-zLts543O-4", "latitude": 40.7545381, "longitude": -73.9825026 }, "geometry": { "type": "Point", "coordinates": [ -73.9825026, 40.7545381 ] } },
{ "type": "Feature", "properties": { "title": "Atera", "price": "$100+", "categoryName": "New American restaurant", "address": "77 Worth St, New York, NY 10013", "neighborhood": "Manhattan", "street": "77 Worth St", "city": "New York", "postalCode": "10013", "state": "New York", "location": { "lat": 40.7169003, "lng": -74.0055631 }, "totalScore": 4.6, "reviewsCount": 535, "url": "https://www.google.com/maps/search/?api=1&query=Atera&query_place_id=ChIJ_Y7rMCBawokR0mnRmN5kL2o", "latitude": 40.7169003, "longitude": -74.0055631 }, "geometry": { "type": "Point", "coordinates": [ -74.0055631, 40.7169003 ] } },
{ "type": "Feature", "properties": { "title": "Wa Jeal Chili House", "price": "$20–30", "categoryName": "Chinese restaurant", "address": "1588 2nd Ave, New York, NY 10028", "neighborhood": "Manhattan", "street": "1588 2nd Ave", "city": "New York", "postalCode": "10028", "state": "New York", "location": { "lat": 40.7754335, "lng": -73.9532956 }, "totalScore": 4.3, "reviewsCount": 267, "url": "https://www.google.com/maps/search/?api=1&query=Wa%20Jeal%20Chili%20House&query_place_id=ChIJa4KK_LtYwokRXcEb5Yrs0JQ", "latitude": 40.7754335, "longitude": -73.9532956 }, "geometry": { "type": "Point", "coordinates": [ -73.9532956, 40.7754335 ] } },
{ "type": "Feature", "properties": { "title": "Pig Heaven", "price": "$30–50", "categoryName": "Chinese restaurant", "address": "1420 3rd Ave, New York, NY 10028", "neighborhood": "Manhattan", "street": "1420 3rd Ave", "city": "New York", "postalCode": "10028", "state": "New York", "location": { "lat": 40.775432, "lng": -73.956852 }, "totalScore": 4.3, "reviewsCount": 626, "url": "https://www.google.com/maps/search/?api=1&query=Pig%20Heaven&query_place_id=ChIJV85Oz75YwokREEwM6yxMNtk", "latitude": 40.775432, "longitude": -73.956852 }, "geometry": { "type": "Point", "coordinates": [ -73.956852, 40.775432 ] } },
{ "type": "Feature", "properties": { "title": "El Tanque Trattoria Bar", "price": "$10–20", "categoryName": "Pizza restaurant", "address": "101 Sherman Ave Suite 3, New York, NY 10034", "neighborhood": "Manhattan", "street": "101 Sherman Ave Suite 3", "city": "New York", "postalCode": "10034", "state": "New York", "location": { "lat": 40.8635587, "lng": -73.9251035 }, "totalScore": 4.9, "reviewsCount": 598, "url": "https://www.google.com/maps/search/?api=1&query=El%20Tanque%20Trattoria%20Bar&query_place_id=ChIJJcp16iL1wokRmgcBqwUrQVM", "latitude": 40.8635587, "longitude": -73.9251035 }, "geometry": { "type": "Point", "coordinates": [ -73.9251035, 40.8635587 ] } },
{ "type": "Feature", "properties": { "title": "Fresco's Pizzeria", "price": "$10–20", "categoryName": "Pizza restaurant", "address": "804 W 187th St, New York, NY 10040", "neighborhood": "Manhattan", "street": "804 W 187th St", "city": "New York", "postalCode": "10040", "state": "New York", "location": { "lat": 40.8551412, "lng": -73.937262 }, "totalScore": 4.5, "reviewsCount": 441, "url": "https://www.google.com/maps/search/?api=1&query=Fresco's%20Pizzeria&query_place_id=ChIJs_iXmaf2wokRBO0CGvrb_4Y", "latitude": 40.8551412, "longitude": -73.937262 }, "geometry": { "type": "Point", "coordinates": [ -73.937262, 40.8551412 ] } },
{ "type": "Feature", "properties": { "title": "Falafel Crunch", "price": "$10–20", "categoryName": "Kosher restaurant", "address": "2547 Amsterdam Ave, New York, NY 10033", "neighborhood": "Manhattan", "street": "2547 Amsterdam Ave", "city": "New York", "postalCode": "10033", "state": "New York", "location": { "lat": 40.8513345, "lng": -73.9282989 }, "totalScore": 4.9, "reviewsCount": 42, "url": "https://www.google.com/maps/search/?api=1&query=Falafel%20Crunch&query_place_id=ChIJrSrIEAD1wokR1ZazzJSDN7A", "latitude": 40.8513345, "longitude": -73.9282989 }, "geometry": { "type": "Point", "coordinates": [ -73.9282989, 40.8513345 ] } },
{ "type": "Feature", "properties": { "title": "Terravita", "price": "$50–100", "categoryName": "Restaurant", "address": "4193 Broadway, New York, NY 10033", "neighborhood": "Manhattan", "street": "4193 Broadway", "city": "New York", "postalCode": "10033", "state": "New York", "location": { "lat": 40.8480855, "lng": -73.9380734 }, "totalScore": 4.7, "reviewsCount": 836, "url": "https://www.google.com/maps/search/?api=1&query=Terravita&query_place_id=ChIJASsUtcD3wokRZQaPJocnxPs", "latitude": 40.8480855, "longitude": -73.9380734 }, "geometry": { "type": "Point", "coordinates": [ -73.9380734, 40.8480855 ] } },
{ "type": "Feature", "properties": { "title": "Suyo Gastrofusion", "price": "$50–100", "categoryName": "Fusion restaurant", "address": "1401 Plaza Dr, Bronx, NY 10452", "neighborhood": "West Bronx", "street": "1401 Plaza Dr", "city": "Bronx", "postalCode": "10452", "state": "New York", "location": { "lat": 40.840605, "lng": -73.918249 }, "totalScore": 4.5, "reviewsCount": 1042, "url": "https://www.google.com/maps/search/?api=1&query=Suyo%20Gastrofusion&query_place_id=ChIJvRXKoD70wokRgXaViMBas0Q", "latitude": 40.840605, "longitude": -73.918249 }, "geometry": { "type": "Point", "coordinates": [ -73.918249, 40.840605 ] } },
{ "type": "Feature", "properties": { "title": "Reverence NYC - Reverence Fine Foods", "price": "$100+", "categoryName": "Californian restaurant", "address": "2592 Frederick Douglass Blvd, New York, NY 10030", "neighborhood": "Manhattan", "street": "2592 Frederick Douglass Blvd", "city": "New York", "postalCode": "10030", "state": "New York", "location": { "lat": 40.8184637, "lng": -73.9448233 }, "totalScore": 4.7, "reviewsCount": 91, "url": "https://www.google.com/maps/search/?api=1&query=Reverence%20NYC%20-%20Reverence%20Fine%20Foods&query_place_id=ChIJcRaXugf3wokRj3_JSIdbkq0", "latitude": 40.8184637, "longitude": -73.9448233 }, "geometry": { "type": "Point", "coordinates": [ -73.9448233, 40.8184637 ] } },
{ "type": "Feature", "properties": { "title": "Saggio", "price": "$30–50", "categoryName": "Southern Italian restaurant", "address": "827 W 181st St, New York, NY 10033", "neighborhood": "Manhattan", "street": "827 W 181st St", "city": "New York", "postalCode": "10033", "state": "New York", "location": { "lat": 40.8514028, "lng": -73.9395667 }, "totalScore": 4.4, "reviewsCount": 720, "url": "https://www.google.com/maps/search/?api=1&query=Saggio&query_place_id=ChIJEc6ZPKH2wokRZyyIzHgixT4", "latitude": 40.8514028, "longitude": -73.9395667 }, "geometry": { "type": "Point", "coordinates": [ -73.9395667, 40.8514028 ] } },
{ "type": "Feature", "properties": { "title": "Il Mulino New York - Uptown", "price": "$50–100", "categoryName": "Fine dining restaurant", "address": "37 E 60th St, New York, NY 10065", "neighborhood": "Manhattan", "street": "37 E 60th St", "city": "New York", "postalCode": "10065", "state": "New York", "location": { "lat": 40.7641024, "lng": -73.9702399 }, "totalScore": 4.3, "reviewsCount": 455, "url": "https://www.google.com/maps/search/?api=1&query=Il%20Mulino%20New%20York%20-%20Uptown&query_place_id=ChIJD9t97u9YwokRZaau3ogrAJg", "latitude": 40.7641024, "longitude": -73.9702399 }, "geometry": { "type": "Point", "coordinates": [ -73.9702399, 40.7641024 ] } },
{ "type": "Feature", "properties": { "title": "Sushi Sasabune", "price": "$100+", "categoryName": "Sushi restaurant", "address": "401 E 73rd St, New York, NY 10021", "neighborhood": "Manhattan", "street": "401 E 73rd St", "city": "New York", "postalCode": "10021", "state": "New York", "location": { "lat": 40.7684175, "lng": -73.9550312 }, "totalScore": 4.4, "reviewsCount": 174, "url": "https://www.google.com/maps/search/?api=1&query=Sushi%20Sasabune&query_place_id=ChIJxeHh4cBYwokRrnTTpHq-6fM", "latitude": 40.7684175, "longitude": -73.9550312 }, "geometry": { "type": "Point", "coordinates": [ -73.9550312, 40.7684175 ] } },
{ "type": "Feature", "properties": { "title": "JG Melon", "price": "$20–30", "categoryName": "Bar & grill", "address": "1291 3rd Ave, New York, NY 10021", "neighborhood": "Manhattan", "street": "1291 3rd Ave", "city": "New York", "postalCode": "10021", "state": "New York", "location": { "lat": 40.7710738, "lng": -73.9593297 }, "totalScore": 4.2, "reviewsCount": 3371, "url": "https://www.google.com/maps/search/?api=1&query=JG%20Melon&query_place_id=ChIJORutA8BYwokR6obC5YpaamM", "latitude": 40.7710738, "longitude": -73.9593297 }, "geometry": { "type": "Point", "coordinates": [ -73.9593297, 40.7710738 ] } },
{ "type": "Feature", "properties": { "title": "Kappo Masa", "price": "$100+", "categoryName": "Japanese restaurant", "address": "976 Madison Ave, New York, NY 10075", "neighborhood": "Manhattan", "street": "976 Madison Ave", "city": "New York", "postalCode": "10075", "state": "New York", "location": { "lat": 40.7746686, "lng": -73.9635421 }, "totalScore": 4.2, "reviewsCount": 207, "url": "https://www.google.com/maps/search/?api=1&query=Kappo%20Masa&query_place_id=ChIJ9w07X5RYwokR5eolQAZ49C4", "latitude": 40.7746686, "longitude": -73.9635421 }, "geometry": { "type": "Point", "coordinates": [ -73.9635421, 40.7746686 ] } },
{ "type": "Feature", "properties": { "title": "Tempura Matsui", "price": "$100+", "categoryName": "Tempura restaurant", "address": "222 E 39th St, New York, NY 10016", "neighborhood": "Manhattan", "street": "222 E 39th St", "city": "New York", "postalCode": "10016", "state": "New York", "location": { "lat": 40.748279, "lng": -73.9748775 }, "totalScore": 4.8, "reviewsCount": 329, "url": "https://www.google.com/maps/search/?api=1&query=Tempura%20Matsui&query_place_id=ChIJ3aiOZQRZwokRyTh5pEHCyXY", "latitude": 40.748279, "longitude": -73.9748775 }, "geometry": { "type": "Point", "coordinates": [ -73.9748775, 40.748279 ] } },
{ "type": "Feature", "properties": { "title": "Caviar Russe", "price": "$100+", "categoryName": "Restaurant", "address": "538 Madison Ave, New York, NY 10022", "neighborhood": "Manhattan", "street": "538 Madison Ave", "city": "New York", "postalCode": "10022", "state": "New York", "location": { "lat": 40.7607667, "lng": -73.9738498 }, "totalScore": 4.5, "reviewsCount": 252, "url": "https://www.google.com/maps/search/?api=1&query=Caviar%20Russe&query_place_id=ChIJmQisBftYwokRQBBSSiPmF_k", "latitude": 40.7607667, "longitude": -73.9738498 }, "geometry": { "type": "Point", "coordinates": [ -73.9738498, 40.7607667 ] } },
{ "type": "Feature", "properties": { "title": "Hutong New York", "price": "$100+", "categoryName": "Chinese restaurant", "address": "Bloomberg Tower, Inside Beacon Courtyard, New York, NY 10022", "neighborhood": "Manhattan", "street": "Bloomberg Tower, Inside Beacon Courtyard", "city": "New York", "postalCode": "10022", "state": "NY", "location": { "lat": 40.7617421, "lng": -73.9675372 }, "totalScore": 4.1, "reviewsCount": 912, "url": "https://www.google.com/maps/search/?api=1&query=Hutong%20New%20York&query_place_id=ChIJweMOgwxZwokRm_BlZ1YAiZc", "latitude": 40.7617421, "longitude": -73.9675372 }, "geometry": { "type": "Point", "coordinates": [ -73.9675372, 40.7617421 ] } },
{ "type": "Feature", "properties": { "title": "Applebee's Grill + Bar", "price": "$$", "categoryName": "Restaurant", "address": "61-48 188th St, Fresh Meadows, NY 11365", "neighborhood": "Fresh Meadows", "street": "61-48 188th St", "city": "Fresh Meadows", "postalCode": "11365", "state": "New York", "location": { "lat": 40.7391689, "lng": -73.7864412 }, "totalScore": 4.2, "reviewsCount": 2584, "url": "https://www.google.com/maps/search/?api=1&query=Applebee's%20Grill%20%2B%20Bar&query_place_id=ChIJFdu6A7FhwokROXGrNrWAkTc", "latitude": 40.7391689, "longitude": -73.7864412 }, "geometry": { "type": "Point", "coordinates": [ -73.7864412, 40.7391689 ] } },
{ "type": "Feature", "properties": { "title": "Fiore Di Mare", "price": "$50–100", "categoryName": "Italian restaurant", "address": "227 Mansion Ave, Staten Island, NY 10308", "neighborhood": "Great Kills", "street": "227 Mansion Ave", "city": "Staten Island", "postalCode": "10308", "state": "New York", "location": { "lat": 40.542868, "lng": -74.142427 }, "totalScore": 4.5, "reviewsCount": 250, "url": "https://www.google.com/maps/search/?api=1&query=Fiore%20Di%20Mare&query_place_id=ChIJ86r3hMtLwokRZbzOxA5J5Jc", "latitude": 40.542868, "longitude": -74.142427 }, "geometry": { "type": "Point", "coordinates": [ -74.142427, 40.542868 ] } },
{ "type": "Feature", "properties": { "title": "Arirang", "price": "$10–20", "categoryName": "Korean restaurant", "address": "41-04 163rd St, Flushing, NY 11358", "neighborhood": "Flushing", "street": "41-04 163rd St", "city": "Flushing", "postalCode": "11358", "state": "New York", "location": { "lat": 40.7613136, "lng": -73.8031089 }, "totalScore": 3.8, "reviewsCount": 377, "url": "https://www.google.com/maps/search/?api=1&query=Arirang&query_place_id=ChIJHSnGVi5gwokRcgDkGStzYNY", "latitude": 40.7613136, "longitude": -73.8031089 }, "geometry": { "type": "Point", "coordinates": [ -73.8031089, 40.7613136 ] } },
{ "type": "Feature", "properties": { "title": "Number One Kitchen", "price": "$10–20", "categoryName": "Chinese restaurant", "address": "5405 Flatlands Ave, Brooklyn, NY 11234", "neighborhood": "Flatlands", "street": "5405 Flatlands Ave", "city": "Brooklyn", "postalCode": "11234", "state": "New York", "location": { "lat": 40.6290075, "lng": -73.9236784 }, "totalScore": 4.2, "reviewsCount": 66, "url": "https://www.google.com/maps/search/?api=1&query=Number%20One%20Kitchen&query_place_id=ChIJ0UiNpLJcwokRwQyQoQIjcp4", "latitude": 40.6290075, "longitude": -73.9236784 }, "geometry": { "type": "Point", "coordinates": [ -73.9236784, 40.6290075 ] } },
{ "type": "Feature", "properties": { "title": "Y&Y Sushi", "price": "$10–20", "categoryName": "Japanese restaurant", "address": "2368 Flatbush Ave, Brooklyn, NY 11234", "neighborhood": "Marine Park", "street": "2368 Flatbush Ave", "city": "Brooklyn", "postalCode": "11234", "state": "New York", "location": { "lat": 40.6122846, "lng": -73.9257981 }, "totalScore": 4.8, "reviewsCount": 152, "url": "https://www.google.com/maps/search/?api=1&query=Y%26Y%20Sushi&query_place_id=ChIJ74KoLJ5DwokRijEKLRWbJlw", "latitude": 40.6122846, "longitude": -73.9257981 }, "geometry": { "type": "Point", "coordinates": [ -73.9257981, 40.6122846 ] } },
{ "type": "Feature", "properties": { "title": "Le Chai", "price": "$100+", "categoryName": "Restaurant", "address": "1904 Utica Ave, Brooklyn, NY 11234", "neighborhood": "Flatlands", "street": "1904 Utica Ave", "city": "Brooklyn", "postalCode": "11234", "state": "New York", "location": { "lat": 40.625347, "lng": -73.9278304 }, "totalScore": 4.0, "reviewsCount": 132, "url": "https://www.google.com/maps/search/?api=1&query=Le%20Chai&query_place_id=ChIJlwFSm91DwokRVE3Xn8ceGHk", "latitude": 40.625347, "longitude": -73.9278304 }, "geometry": { "type": "Point", "coordinates": [ -73.9278304, 40.625347 ] } },
{ "type": "Feature", "properties": { "title": "Il Posto", "price": "$50–100", "categoryName": "Italian restaurant", "address": "7409 Avenue U, Brooklyn, NY 11234", "neighborhood": "Bergen Beach", "street": "7409 Avenue U", "city": "Brooklyn", "postalCode": "11234", "state": "New York", "location": { "lat": 40.6214838, "lng": -73.9051425 }, "totalScore": 4.5, "reviewsCount": 302, "url": "https://www.google.com/maps/search/?api=1&query=Il%20Posto&query_place_id=ChIJoSkvwDNDwokRKZVuezUe5s0", "latitude": 40.6214838, "longitude": -73.9051425 }, "geometry": { "type": "Point", "coordinates": [ -73.9051425, 40.6214838 ] } },
{ "type": "Feature", "properties": { "title": "Jungsik", "price": "$100+", "categoryName": "Korean restaurant", "address": "2 Harrison St, New York, NY 10013", "neighborhood": "Manhattan", "street": "2 Harrison St", "city": "New York", "postalCode": "10013", "state": "New York", "location": { "lat": 40.7188267, "lng": -74.0090751 }, "totalScore": 4.7, "reviewsCount": 765, "url": "https://www.google.com/maps/search/?api=1&query=Jungsik&query_place_id=ChIJpSTN0R9awokRI29rK_SfbeA", "latitude": 40.7188267, "longitude": -74.0090751 }, "geometry": { "type": "Point", "coordinates": [ -74.0090751, 40.7188267 ] } },
{ "type": "Feature", "properties": { "title": "Tuome", "price": "$100+", "categoryName": "Fine dining restaurant", "address": "536 E 5th St, New York, NY 10009", "neighborhood": "Manhattan", "street": "536 E 5th St", "city": "New York", "postalCode": "10009", "state": "New York", "location": { "lat": 40.724053, "lng": -73.9828525 }, "totalScore": 4.5, "reviewsCount": 653, "url": "https://www.google.com/maps/search/?api=1&query=Tuome&query_place_id=ChIJU7iTdXhZwokR2n5XFHPVdAY", "latitude": 40.724053, "longitude": -73.9828525 }, "geometry": { "type": "Point", "coordinates": [ -73.9828525, 40.724053 ] } },
{ "type": "Feature", "properties": { "title": "Ai Fiori", "price": "$100+", "categoryName": "Restaurant", "address": "400 5th Ave #2, New York, NY 10018", "neighborhood": "Manhattan", "street": "400 5th Ave #2", "city": "New York", "postalCode": "10018", "state": "New York", "location": { "lat": 40.7500752, "lng": -73.9837835 }, "totalScore": 4.4, "reviewsCount": 1689, "url": "https://www.google.com/maps/search/?api=1&query=Ai%20Fiori&query_place_id=ChIJMYIE-KlZwokRZuFHn8jkNuo", "latitude": 40.7500752, "longitude": -73.9837835 }, "geometry": { "type": "Point", "coordinates": [ -73.9837835, 40.7500752 ] } },
{ "type": "Feature", "properties": { "title": "The Musket Room", "price": "$100+", "categoryName": "New American restaurant", "address": "265 Elizabeth St, New York, NY 10012", "neighborhood": "Manhattan", "street": "265 Elizabeth St", "city": "New York", "postalCode": "10012", "state": "New York", "location": { "lat": 40.7239263, "lng": -73.9938218 }, "totalScore": 4.5, "reviewsCount": 790, "url": "https://www.google.com/maps/search/?api=1&query=The%20Musket%20Room&query_place_id=ChIJ3TJ4moVZwokRkyy0hZnv_RA", "latitude": 40.7239263, "longitude": -73.9938218 }, "geometry": { "type": "Point", "coordinates": [ -73.9938218, 40.7239263 ] } },
{ "type": "Feature", "properties": { "title": "Shimiaodao Noodle", "price": "$10–20", "categoryName": "Noodle shop", "address": "135-25 40th Rd, Flushing, NY 11354", "neighborhood": "Flushing", "street": "135-25 40th Rd", "city": "Flushing", "postalCode": "11354", "state": "New York", "location": { "lat": 40.7588445, "lng": -73.8307666 }, "totalScore": 3.8, "reviewsCount": 253, "url": "https://www.google.com/maps/search/?api=1&query=Shimiaodao%20Noodle&query_place_id=ChIJzdrckMlhwokRwBLAvbcAoGM", "latitude": 40.7588445, "longitude": -73.8307666 }, "geometry": { "type": "Point", "coordinates": [ -73.8307666, 40.7588445 ] } },
{ "type": "Feature", "properties": { "title": "Piccolo Sogno", "price": "$20–30", "categoryName": "Italian restaurant", "address": "195-14 47th Ave, Flushing, NY 11358", "neighborhood": "Flushing", "street": "195-14 47th Ave", "city": "Flushing", "postalCode": "11358", "state": "New York", "location": { "lat": 40.752459, "lng": -73.785769 }, "totalScore": 4.6, "reviewsCount": 444, "url": "https://www.google.com/maps/search/?api=1&query=Piccolo%20Sogno&query_place_id=ChIJU8dOIc9hwokRcYOEBJXggc0", "latitude": 40.752459, "longitude": -73.785769 }, "geometry": { "type": "Point", "coordinates": [ -73.785769, 40.752459 ] } },
{ "type": "Feature", "properties": { "title": "MJ USA 東旺飯店", "price": "$10–20", "categoryName": "Chinese restaurant", "address": "6010 Kissena Blvd, Flushing, NY 11355", "neighborhood": "Flushing", "street": "6010 Kissena Blvd", "city": "Flushing", "postalCode": "11355", "state": "New York", "location": { "lat": 40.7396131, "lng": -73.8152706 }, "totalScore": 3.4, "reviewsCount": 180, "url": "https://www.google.com/maps/search/?api=1&query=MJ%20USA%20%E6%9D%B1%E6%97%BA%E9%A3%AF%E5%BA%97&query_place_id=ChIJg1-64FxgwokRFRPPmYCaSjc", "latitude": 40.7396131, "longitude": -73.8152706 }, "geometry": { "type": "Point", "coordinates": [ -73.8152706, 40.7396131 ] } },
{ "type": "Feature", "properties": { "title": "Nawabari (Korean & Japanese cuisine)", "price": "$20–30", "categoryName": "Korean restaurant", "address": "41-04 162nd St, Flushing, NY 11358", "neighborhood": "Flushing", "street": "41-04 162nd St", "city": "Flushing", "postalCode": "11358", "state": "New York", "location": { "lat": 40.7612312, "lng": -73.8040764 }, "totalScore": 4.5, "reviewsCount": 114, "url": "https://www.google.com/maps/search/?api=1&query=Nawabari%20(Korean%20%26%20Japanese%20cuisine)&query_place_id=ChIJz_n3X25hwokRFJsy3R8ntmg", "latitude": 40.7612312, "longitude": -73.8040764 }, "geometry": { "type": "Point", "coordinates": [ -73.8040764, 40.7612312 ] } },
{ "type": "Feature", "properties": { "title": "Congee Village Flushing", "price": "$$", "categoryName": "Chinese restaurant", "address": "36-36 Prince St, Flushing, NY 11354", "neighborhood": "Flushing", "street": "36-36 Prince St", "city": "Flushing", "postalCode": "11354", "state": "New York", "location": { "lat": 40.7610111, "lng": -73.8330579 }, "totalScore": 3.8, "reviewsCount": 1050, "url": "https://www.google.com/maps/search/?api=1&query=Congee%20Village%20Flushing&query_place_id=ChIJ0_1Eqg9gwokRjAhk6LLsMu0", "latitude": 40.7610111, "longitude": -73.8330579 }, "geometry": { "type": "Point", "coordinates": [ -73.8330579, 40.7610111 ] } },
{ "type": "Feature", "properties": { "title": "El Gauchito 2", "price": "$$", "categoryName": "Argentinian restaurant", "address": "158 15 Horace Harding Expy, Flushing, NY 11365", "neighborhood": "Flushing", "street": "158 15 Horace Harding Expy", "city": "Flushing", "postalCode": "11365", "state": "New York", "location": { "lat": 40.7389469, "lng": -73.8098012 }, "totalScore": 4.4, "reviewsCount": 956, "url": "https://www.google.com/maps/search/?api=1&query=El%20Gauchito%202&query_place_id=ChIJ0-_YHltgwokRltfZfNbBjc8", "latitude": 40.7389469, "longitude": -73.8098012 }, "geometry": { "type": "Point", "coordinates": [ -73.8098012, 40.7389469 ] } },
{ "type": "Feature", "properties": { "title": "Daesung korean Noodle", "price": "$20–30", "categoryName": "Korean restaurant", "address": "45-04 162nd St, Flushing, NY 11358", "neighborhood": "Flushing", "street": "45-04 162nd St", "city": "Flushing", "postalCode": "11358", "state": "New York", "location": { "lat": 40.7561475, "lng": -73.8047322 }, "totalScore": 4.4, "reviewsCount": 880, "url": "https://www.google.com/maps/search/?api=1&query=Daesung%20korean%20Noodle&query_place_id=ChIJ9eM_7DBgwokRj-RfOwEixog", "latitude": 40.7561475, "longitude": -73.8047322 }, "geometry": { "type": "Point", "coordinates": [ -73.8047322, 40.7561475 ] } },
{ "type": "Feature", "properties": { "title": "Main Street Imperial Taiwanese", "price": "$20–30", "categoryName": "Taiwanese restaurant", "address": "59-10 Main St, Flushing, NY 11355", "neighborhood": "Flushing", "street": "59-10 Main St", "city": "Flushing", "postalCode": "11355", "state": "New York", "location": { "lat": 40.7435052, "lng": -73.8259167 }, "totalScore": 4.0, "reviewsCount": 409, "url": "https://www.google.com/maps/search/?api=1&query=Main%20Street%20Imperial%20Taiwanese&query_place_id=ChIJ66zUa29gwokRvkHBl7t93E4", "latitude": 40.7435052, "longitude": -73.8259167 }, "geometry": { "type": "Point", "coordinates": [ -73.8259167, 40.7435052 ] } },
{ "type": "Feature", "properties": { "title": "Kakurega Sushi", "price": "$100+", "categoryName": "Authentic Japanese restaurant", "address": "133-44 37th Ave, Flushing, NY 11354", "neighborhood": "Flushing", "street": "133-44 37th Ave", "city": "Flushing", "postalCode": "11354", "state": "New York", "location": { "lat": 40.7605556, "lng": -73.8333333 }, "totalScore": 4.4, "reviewsCount": 106, "url": "https://www.google.com/maps/search/?api=1&query=Kakurega%20Sushi&query_place_id=ChIJOfM--Q5gwokR1KiU6Vlt1eY", "latitude": 40.7605556, "longitude": -73.8333333 }, "geometry": { "type": "Point", "coordinates": [ -73.8333333, 40.7605556 ] } },
{ "type": "Feature", "properties": { "title": "Mythos Authentic Greek Cuisine", "price": "$30–50", "categoryName": "Restaurant", "address": "19629 Northern Blvd, Flushing, NY 11358", "neighborhood": "Flushing", "street": "19629 Northern Blvd", "city": "Flushing", "postalCode": "11358", "state": "New York", "location": { "lat": 40.7581528, "lng": -73.7846917 }, "totalScore": 4.5, "reviewsCount": 487, "url": "https://www.google.com/maps/search/?api=1&query=Mythos%20Authentic%20Greek%20Cuisine&query_place_id=ChIJ5x5UBb1hwokRHeCYMLU1_zU", "latitude": 40.7581528, "longitude": -73.7846917 }, "geometry": { "type": "Point", "coordinates": [ -73.7846917, 40.7581528 ] } },
{ "type": "Feature", "properties": { "title": "Asian Jewels", "price": "$20–30", "categoryName": "Chinese restaurant", "address": "133-30 39th Ave, Flushing, NY 11354", "neighborhood": "Flushing", "street": "133-30 39th Ave", "city": "Flushing", "postalCode": "11354", "state": "New York", "location": { "lat": 40.7591397, "lng": -73.8333631 }, "totalScore": 4.2, "reviewsCount": 2710, "url": "https://www.google.com/maps/search/?api=1&query=Asian%20Jewels&query_place_id=ChIJ2aw2iQ5gwokRDiwmsI9YhnE", "latitude": 40.7591397, "longitude": -73.8333631 }, "geometry": { "type": "Point", "coordinates": [ -73.8333631, 40.7591397 ] } },
{ "type": "Feature", "properties": { "title": "New Mulan", "price": "$20–30", "categoryName": "Chinese restaurant", "address": "136-17 39th Ave, Flushing, NY 11354", "neighborhood": "Flushing", "street": "136-17 39th Ave", "city": "Flushing", "postalCode": "11354", "state": "New York", "location": { "lat": 40.7604519, "lng": -73.8297953 }, "totalScore": 3.8, "reviewsCount": 755, "url": "https://www.google.com/maps/search/?api=1&query=New%20Mulan&query_place_id=ChIJJRUX1RFgwokRhFIwIMplYSE", "latitude": 40.7604519, "longitude": -73.8297953 }, "geometry": { "type": "Point", "coordinates": [ -73.8297953, 40.7604519 ] } },
{ "type": "Feature", "properties": { "title": "Nan Xiang Soup Dumplings - Flushing", "price": "$20–30", "categoryName": "Dumpling restaurant", "address": "39-16 Prince St #104, Flushing, NY 11354", "neighborhood": "Flushing", "street": "39-16 Prince St #104", "city": "Flushing", "postalCode": "11354", "state": "New York", "location": { "lat": 40.7595751, "lng": -73.8324134 }, "totalScore": 4.5, "reviewsCount": 6270, "url": "https://www.google.com/maps/search/?api=1&query=Nan%20Xiang%20Soup%20Dumplings%20-%20Flushing&query_place_id=ChIJVz4MXA5gwokRhGRy5-dJryQ", "latitude": 40.7595751, "longitude": -73.8324134 }, "geometry": { "type": "Point", "coordinates": [ -73.8324134, 40.7595751 ] } },
{ "type": "Feature", "properties": { "title": "CHELI FLUSHING 浙里", "price": "$30–50", "categoryName": "Chinese restaurant", "address": "133-42 39th Ave STE 102, Queens, NY 11354", "neighborhood": "Flushing", "street": "133-42 39th Ave STE 102", "city": "Queens", "postalCode": "11354", "state": "New York", "location": { "lat": 40.7594897, "lng": -73.8326023 }, "totalScore": 4.6, "reviewsCount": 700, "url": "https://www.google.com/maps/search/?api=1&query=CHELI%20FLUSHING%20%E6%B5%99%E9%87%8C&query_place_id=ChIJYVvVYJ5hwokR-KpQ6FHfdG4", "latitude": 40.7594897, "longitude": -73.8326023 }, "geometry": { "type": "Point", "coordinates": [ -73.8326023, 40.7594897 ] } },
{ "type": "Feature", "properties": { "title": "大喜川菜馆 DAXI Sichuan cuisine", "price": "$30–50", "categoryName": "Sichuan restaurant", "address": "136-20 Roosevelt Ave #2R, Flushing, NY 11354", "neighborhood": "Flushing", "street": "136-20 Roosevelt Ave #2R", "city": "Flushing", "postalCode": "11354", "state": "New York", "location": { "lat": 40.7593211, "lng": -73.8290528 }, "totalScore": 4.4, "reviewsCount": 953, "url": "https://www.google.com/maps/search/?api=1&query=%E5%A4%A7%E5%96%9C%E5%B7%9D%E8%8F%9C%E9%A6%86%20DAXI%20Sichuan%20cuisine&query_place_id=ChIJPwLjwxFgwokRLQrZ9mQpa9E", "latitude": 40.7593211, "longitude": -73.8290528 }, "geometry": { "type": "Point", "coordinates": [ -73.8290528, 40.7593211 ] } },
{ "type": "Feature", "properties": { "title": "Jiang Nan Flushing", "price": "$30–50", "categoryName": "Chinese restaurant", "address": "133-42 39th Ave STE 101, Flushing, NY 11354", "neighborhood": "Flushing", "street": "133-42 39th Ave STE 101", "city": "Flushing", "postalCode": "11354", "state": "New York", "location": { "lat": 40.7594412, "lng": -73.8327061 }, "totalScore": 4.4, "reviewsCount": 800, "url": "https://www.google.com/maps/search/?api=1&query=Jiang%20Nan%20Flushing&query_place_id=ChIJZSvB14NhwokRR7ROmZwHvUw", "latitude": 40.7594412, "longitude": -73.8327061 }, "geometry": { "type": "Point", "coordinates": [ -73.8327061, 40.7594412 ] } },
{ "type": "Feature", "properties": { "title": "Alley 41", "price": "$20–30", "categoryName": "Chinese restaurant", "address": "136-45 41st Ave, Flushing, NY 11355", "neighborhood": "Flushing", "street": "136-45 41st Ave", "city": "Flushing", "postalCode": "11355", "state": "New York", "location": { "lat": 40.7591123, "lng": -73.8280121 }, "totalScore": 4.3, "reviewsCount": 429, "url": "https://www.google.com/maps/search/?api=1&query=Alley%2041&query_place_id=ChIJmQ7DvBFgwokRBNJbyDc81oI", "latitude": 40.7591123, "longitude": -73.8280121 }, "geometry": { "type": "Point", "coordinates": [ -73.8280121, 40.7591123 ] } },
{ "type": "Feature", "properties": { "title": "Jua", "price": "$100+", "categoryName": "Korean restaurant", "address": "36 E 22nd St, New York, NY 10010", "neighborhood": "Manhattan", "street": "36 E 22nd St", "city": "New York", "postalCode": "10010", "state": "New York", "location": { "lat": 40.7396779, "lng": -73.9878514 }, "totalScore": 4.8, "reviewsCount": 558, "url": "https://www.google.com/maps/search/?api=1&query=Jua&query_place_id=ChIJfTgbIE9ZwokRdRjFE2OMZN8", "latitude": 40.7396779, "longitude": -73.9878514 }, "geometry": { "type": "Point", "coordinates": [ -73.9878514, 40.7396779 ] } },
{ "type": "Feature", "properties": { "title": "Hanyang Chicken Flushing (한양치킨)", "price": "$10–20", "categoryName": "Korean restaurant", "address": "150-29 Northern Blvd, Flushing, NY 11354", "neighborhood": "Flushing", "street": "150-29 Northern Blvd", "city": "Flushing", "postalCode": "11354", "state": "New York", "location": { "lat": 40.7653562, "lng": -73.8139548 }, "totalScore": 4.3, "reviewsCount": 81, "url": "https://www.google.com/maps/search/?api=1&query=Hanyang%20Chicken%20Flushing%20(%ED%95%9C%EC%96%91%EC%B9%98%ED%82%A8)&query_place_id=ChIJPy7oSkVhwokRiCgXhYA7KBo", "latitude": 40.7653562, "longitude": -73.8139548 }, "geometry": { "type": "Point", "coordinates": [ -73.8139548, 40.7653562 ] } },
{ "type": "Feature", "properties": { "title": "Roberta's", "price": "$20–30", "categoryName": "Pizza restaurant", "address": "261 Moore St, Brooklyn, NY 11206", "neighborhood": "Bushwick", "street": "261 Moore St", "city": "Brooklyn", "postalCode": "11206", "state": "New York", "location": { "lat": 40.7050613, "lng": -73.9335783 }, "totalScore": 4.5, "reviewsCount": 1823, "url": "https://www.google.com/maps/search/?api=1&query=Roberta's&query_place_id=ChIJzSOyOg1dwokRfQ-5htUfsRY", "latitude": 40.7050613, "longitude": -73.9335783 }, "geometry": { "type": "Point", "coordinates": [ -73.9335783, 40.7050613 ] } },
{ "type": "Feature", "properties": { "title": "The Local Eatery & Craft Beer", "price": "$10–20", "categoryName": "Bar & grill", "address": "66-75 Selfridge St, Forest Hills, NY 11375", "neighborhood": "Forest Hills", "street": "66-75 Selfridge St", "city": "Forest Hills", "postalCode": "11375", "state": "New York", "location": { "lat": 40.717173, "lng": -73.8570469 }, "totalScore": 4.7, "reviewsCount": 178, "url": "https://www.google.com/maps/search/?api=1&query=The%20Local%20Eatery%20%26%20Craft%20Beer&query_place_id=ChIJJVVvF_lfwokRjaP3lWJKUm4", "latitude": 40.717173, "longitude": -73.8570469 }, "geometry": { "type": "Point", "coordinates": [ -73.8570469, 40.717173 ] } },
{ "type": "Feature", "properties": { "title": "Woodhaven Blvd Peruvian restaurant", "price": null, "categoryName": "Restaurant", "address": "6707 Woodhaven Blvd, Rego Park, NY 11374", "neighborhood": "Rego Park", "street": "6707 Woodhaven Blvd", "city": "Rego Park", "postalCode": "11374", "state": "New York", "location": { "lat": 40.7171258, "lng": -73.8619829 }, "totalScore": 5.0, "reviewsCount": 1, "url": "https://www.google.com/maps/search/?api=1&query=Woodhaven%20Blvd%20Peruvian%20restaurant&query_place_id=ChIJGydnUz1fwokRnIhxTGeCtDk", "latitude": 40.7171258, "longitude": -73.8619829 }, "geometry": { "type": "Point", "coordinates": [ -73.8619829, 40.7171258 ] } },
{ "type": "Feature", "properties": { "title": "Taco Place", "price": "$10–20", "categoryName": "Mexican restaurant", "address": "94-03 63rd Dr, Rego Park, NY 11374", "neighborhood": "Rego Park", "street": "94-03 63rd Dr", "city": "Rego Park", "postalCode": "11374", "state": "New York", "location": { "lat": 40.7288832, "lng": -73.8633786 }, "totalScore": 4.1, "reviewsCount": 137, "url": "https://www.google.com/maps/search/?api=1&query=Taco%20Place&query_place_id=ChIJFauvkTdewokRmMSSFWVXh7c", "latitude": 40.7288832, "longitude": -73.8633786 }, "geometry": { "type": "Point", "coordinates": [ -73.8633786, 40.7288832 ] } },
{ "type": "Feature", "properties": { "title": "Tasty & Co", "price": "$", "categoryName": "Chinese restaurant", "address": "94-19 63rd Dr, Rego Park, NY 11374", "neighborhood": "Rego Park", "street": "94-19 63rd Dr", "city": "Rego Park", "postalCode": "11374", "state": "New York", "location": { "lat": 40.7292664, "lng": -73.8630946 }, "totalScore": 4.0, "reviewsCount": 133, "url": "https://www.google.com/maps/search/?api=1&query=Tasty%20%26%20Co&query_place_id=ChIJGWEfmDdewokRdcBqQ0Vzpqs", "latitude": 40.7292664, "longitude": -73.8630946 }, "geometry": { "type": "Point", "coordinates": [ -73.8630946, 40.7292664 ] } },
{ "type": "Feature", "properties": { "title": "Summer", "price": "$10–20", "categoryName": "Vietnamese restaurant", "address": "85-36 Grand Ave, Elmhurst, NY 11373", "neighborhood": "Elmhurst", "street": "85-36 Grand Ave", "city": "Elmhurst", "postalCode": "11373", "state": "New York", "location": { "lat": 40.735356, "lng": -73.880914 }, "totalScore": 4.2, "reviewsCount": 148, "url": "https://www.google.com/maps/search/?api=1&query=Summer&query_place_id=ChIJhXdFY1FewokRi9HODSe6oto", "latitude": 40.735356, "longitude": -73.880914 }, "geometry": { "type": "Point", "coordinates": [ -73.880914, 40.735356 ] } },
{ "type": "Feature", "properties": { "title": "Olive Garden Italian Restaurant", "price": "$20–30", "categoryName": "Italian restaurant", "address": "92-10 59th Ave, Elmhurst, NY 11373", "neighborhood": "Elmhurst", "street": "92-10 59th Ave", "city": "Elmhurst", "postalCode": "11373", "state": "New York", "location": { "lat": 40.7340296, "lng": -73.8686135 }, "totalScore": 4.1, "reviewsCount": 4556, "url": "https://www.google.com/maps/search/?api=1&query=Olive%20Garden%20Italian%20Restaurant&query_place_id=ChIJj2g00UtewokRXsamx9jw04g", "latitude": 40.7340296, "longitude": -73.8686135 }, "geometry": { "type": "Point", "coordinates": [ -73.8686135, 40.7340296 ] } },
{ "type": "Feature", "properties": { "title": "LongHorn Steakhouse", "price": "$$", "categoryName": "Steak house", "address": "9230 59th Ave, Elmhurst, NY 11373", "neighborhood": "Elmhurst", "street": "9230 59th Ave", "city": "Elmhurst", "postalCode": "11373", "state": "New York", "location": { "lat": 40.734288, "lng": -73.867885 }, "totalScore": 4.2, "reviewsCount": 3512, "url": "https://www.google.com/maps/search/?api=1&query=LongHorn%20Steakhouse&query_place_id=ChIJF85h00tewokRLI9zs5Ml1Xs", "latitude": 40.734288, "longitude": -73.867885 }, "geometry": { "type": "Point", "coordinates": [ -73.867885, 40.734288 ] } },
{ "type": "Feature", "properties": { "title": "Spring Thai Fusion & Bar", "price": "$$", "categoryName": "Thai restaurant", "address": "96-40 Queens Blvd, Rego Park, NY 11374", "neighborhood": "Rego Park", "street": "96-40 Queens Blvd", "city": "Rego Park", "postalCode": "11374", "state": "New York", "location": { "lat": 40.7293745, "lng": -73.861291 }, "totalScore": 4.5, "reviewsCount": 258, "url": "https://www.google.com/maps/search/?api=1&query=Spring%20Thai%20Fusion%20%26%20Bar&query_place_id=ChIJnT4uw89fwokRpJqNsii4NCE", "latitude": 40.7293745, "longitude": -73.861291 }, "geometry": { "type": "Point", "coordinates": [ -73.861291, 40.7293745 ] } },
{ "type": "Feature", "properties": { "title": "Nur Thai", "price": "$$", "categoryName": "Thai restaurant", "address": "63-32 Woodhaven Blvd, Rego Park, NY 11374", "neighborhood": "Rego Park", "street": "63-32 Woodhaven Blvd", "city": "Rego Park", "postalCode": "11374", "state": "New York", "location": { "lat": 40.7235219, "lng": -73.8688716 }, "totalScore": 4.3, "reviewsCount": 1201, "url": "https://www.google.com/maps/search/?api=1&query=Nur%20Thai&query_place_id=ChIJ9zqbL0FewokR3XEzBMIb96w", "latitude": 40.7235219, "longitude": -73.8688716 }, "geometry": { "type": "Point", "coordinates": [ -73.8688716, 40.7235219 ] } },
{ "type": "Feature", "properties": { "title": "Ocean Prime, Bar and Restaurant", "price": "$$", "categoryName": "American restaurant", "address": "64-14 Flushing Ave, Maspeth, NY 11378", "neighborhood": "Maspeth", "street": "64-14 Flushing Ave", "city": "Maspeth", "postalCode": "11378", "state": "New York", "location": { "lat": 40.7228242, "lng": -73.9009288 }, "totalScore": 4.4, "reviewsCount": 51, "url": "https://www.google.com/maps/search/?api=1&query=Ocean%20Prime%2C%20Bar%20and%20Restaurant&query_place_id=ChIJ43VTtJdfwokRPOElamTIwro", "latitude": 40.7228242, "longitude": -73.9009288 }, "geometry": { "type": "Point", "coordinates": [ -73.9009288, 40.7228242 ] } },
{ "type": "Feature", "properties": { "title": "Marakand", "price": "$20–30", "categoryName": "Uzbeki restaurant", "address": "9898 Queens Blvd, Rego Park, NY 11374", "neighborhood": "Rego Park", "street": "9898 Queens Blvd", "city": "Rego Park", "postalCode": "11374", "state": "New York", "location": { "lat": 40.7271197, "lng": -73.8549854 }, "totalScore": 4.5, "reviewsCount": 425, "url": "https://www.google.com/maps/search/?api=1&query=Marakand&query_place_id=ChIJv8O_NLdfwokRlKd7hSXlaes", "latitude": 40.7271197, "longitude": -73.8549854 }, "geometry": { "type": "Point", "coordinates": [ -73.8549854, 40.7271197 ] } },
{ "type": "Feature", "properties": { "title": "Cheburechnaya", "price": "$", "categoryName": "Uzbeki restaurant", "address": "9209 63rd Dr, Rego Park, NY 11374", "neighborhood": "Rego Park", "street": "9209 63rd Dr", "city": "Rego Park", "postalCode": "11374", "state": "New York", "location": { "lat": 40.7276683, "lng": -73.864085 }, "totalScore": 4.3, "reviewsCount": 860, "url": "https://www.google.com/maps/search/?api=1&query=Cheburechnaya&query_place_id=ChIJvYUjGDhewokRbYkZ4ofxbcA", "latitude": 40.7276683, "longitude": -73.864085 }, "geometry": { "type": "Point", "coordinates": [ -73.864085, 40.7276683 ] } },
{ "type": "Feature", "properties": { "title": "Pata Cafe", "price": "$10–20", "categoryName": "Thai restaurant", "address": "56-14 Van Horn St, Elmhurst, NY 11373", "neighborhood": "Elmhurst", "street": "56-14 Van Horn St", "city": "Elmhurst", "postalCode": "11373", "state": "New York", "location": { "lat": 40.7325145, "lng": -73.8767707 }, "totalScore": 4.6, "reviewsCount": 147, "url": "https://www.google.com/maps/search/?api=1&query=Pata%20Cafe&query_place_id=ChIJaaNE009ewokRPCHe9P866u4", "latitude": 40.7325145, "longitude": -73.8767707 }, "geometry": { "type": "Point", "coordinates": [ -73.8767707, 40.7325145 ] } },
{ "type": "Feature", "properties": { "title": "Fogo de Chão Brazilian Steakhouse", "price": "$50–100", "categoryName": "Brazilian restaurant", "address": "92-50 59th Ave, Elmhurst, NY 11373", "neighborhood": "Elmhurst", "street": "92-50 59th Ave", "city": "Elmhurst", "postalCode": "11373", "state": "New York", "location": { "lat": 40.7344322, "lng": -73.8674969 }, "totalScore": 4.8, "reviewsCount": 5496, "url": "https://www.google.com/maps/search/?api=1&query=Fogo%20de%20Ch%C3%A3o%20Brazilian%20Steakhouse&query_place_id=ChIJrdwHMBVfwokR2vrJsy8aTOo", "latitude": 40.7344322, "longitude": -73.8674969 }, "geometry": { "type": "Point", "coordinates": [ -73.8674969, 40.7344322 ] } },
{ "type": "Feature", "properties": { "title": "Il Poeta", "price": "$50–100", "categoryName": "Northern Italian restaurant", "address": "98-04 Metropolitan Ave, Forest Hills, NY 11375", "neighborhood": "Forest Hills", "street": "98-04 Metropolitan Ave", "city": "Forest Hills", "postalCode": "11375", "state": "New York", "location": { "lat": 40.7109556, "lng": -73.8545293 }, "totalScore": 4.5, "reviewsCount": 533, "url": "https://www.google.com/maps/search/?api=1&query=Il%20Poeta&query_place_id=ChIJuRXPlxBewokRwgFBn6bU-hg", "latitude": 40.7109556, "longitude": -73.8545293 }, "geometry": { "type": "Point", "coordinates": [ -73.8545293, 40.7109556 ] } },
{ "type": "Feature", "properties": { "title": "La Cantine", "price": "$20–30", "categoryName": "Restaurant", "address": "60 St Nicholas Ave, Brooklyn, NY 11237", "neighborhood": "Bushwick", "street": "60 St Nicholas Ave", "city": "Brooklyn", "postalCode": "11237", "state": "New York", "location": { "lat": 40.7066805, "lng": -73.9205728 }, "totalScore": 4.6, "reviewsCount": 296, "url": "https://www.google.com/maps/search/?api=1&query=La%20Cantine&query_place_id=ChIJY3SV72ddwokRP1FK0G3VnG4", "latitude": 40.7066805, "longitude": -73.9205728 }, "geometry": { "type": "Point", "coordinates": [ -73.9205728, 40.7066805 ] } },
{ "type": "Feature", "properties": { "title": "Za-Ya", "price": "$20–30", "categoryName": "Japanese restaurant", "address": "321 Starr St Suite D, Brooklyn, NY 11237", "neighborhood": "Bushwick", "street": "321 Starr St Suite D", "city": "Brooklyn", "postalCode": "11237", "state": "New York", "location": { "lat": 40.7080628, "lng": -73.9205142 }, "totalScore": 4.8, "reviewsCount": 169, "url": "https://www.google.com/maps/search/?api=1&query=Za-Ya&query_place_id=ChIJA5X-O_NfwokRuYuGvy82R_I", "latitude": 40.7080628, "longitude": -73.9205142 }, "geometry": { "type": "Point", "coordinates": [ -73.9205142, 40.7080628 ] } },
{ "type": "Feature", "properties": { "title": "Momo Sushi Shack", "price": "$20–30", "categoryName": "Sushi restaurant", "address": "43 Bogart St, Brooklyn, NY 11206", "neighborhood": "Bushwick", "street": "43 Bogart St", "city": "Brooklyn", "postalCode": "11206", "state": "New York", "location": { "lat": 40.7051637, "lng": -73.9334077 }, "totalScore": 4.4, "reviewsCount": 456, "url": "https://www.google.com/maps/search/?api=1&query=Momo%20Sushi%20Shack&query_place_id=ChIJ34aX5gBcwokREbremOF3FIY", "latitude": 40.7051637, "longitude": -73.9334077 }, "geometry": { "type": "Point", "coordinates": [ -73.9334077, 40.7051637 ] } },
{ "type": "Feature", "properties": { "title": "Rolo’s", "price": "$50–100", "categoryName": "Bar & grill", "address": "853 Onderdonk Ave, Ridgewood, NY 11385", "neighborhood": "Ridgewood", "street": "853 Onderdonk Ave", "city": "Ridgewood", "postalCode": "11385", "state": "New York", "location": { "lat": 40.7019431, "lng": -73.903537 }, "totalScore": 4.5, "reviewsCount": 1261, "url": "https://www.google.com/maps/search/?api=1&query=Rolo%E2%80%99s&query_place_id=ChIJWUhoPQhdwokRYsDwo5qMnMU", "latitude": 40.7019431, "longitude": -73.903537 }, "geometry": { "type": "Point", "coordinates": [ -73.903537, 40.7019431 ] } },
{ "type": "Feature", "properties": { "title": "Concrete Sicilian Eatery", "price": "$30–50", "categoryName": "Sicilian restaurant", "address": "906 Broadway, Brooklyn, NY 11206", "neighborhood": "Bedford-Stuyvesant", "street": "906 Broadway", "city": "Brooklyn", "postalCode": "11206", "state": "New York", "location": { "lat": 40.697697, "lng": -73.9368276 }, "totalScore": 4.7, "reviewsCount": 438, "url": "https://www.google.com/maps/search/?api=1&query=Concrete%20Sicilian%20Eatery&query_place_id=ChIJI2kKw_dbwokR5GBtrXU8rMc", "latitude": 40.697697, "longitude": -73.9368276 }, "geometry": { "type": "Point", "coordinates": [ -73.9368276, 40.697697 ] } },
{ "type": "Feature", "properties": { "title": "Tabaré Bushwick", "price": "$30–50", "categoryName": "Uruguayan restaurant", "address": "1006 Flushing Ave, Brooklyn, NY 11237", "neighborhood": "Bushwick", "street": "1006 Flushing Ave", "city": "Brooklyn", "postalCode": "11237", "state": "New York", "location": { "lat": 40.7037805, "lng": -73.9306778 }, "totalScore": 4.6, "reviewsCount": 393, "url": "https://www.google.com/maps/search/?api=1&query=Tabar%C3%A9%20Bushwick&query_place_id=ChIJ80WOzERdwokRXjGSASkDZxk", "latitude": 40.7037805, "longitude": -73.9306778 }, "geometry": { "type": "Point", "coordinates": [ -73.9306778, 40.7037805 ] } },
{ "type": "Feature", "properties": { "title": "Indika House", "price": "$10–20", "categoryName": "Indian restaurant", "address": "943 Broadway, Brooklyn, NY 11206", "neighborhood": "Bushwick", "street": "943 Broadway", "city": "Brooklyn", "postalCode": "11206", "state": "New York", "location": { "lat": 40.6971465, "lng": -73.9352686 }, "totalScore": 4.6, "reviewsCount": 331, "url": "https://www.google.com/maps/search/?api=1&query=Indika%20House&query_place_id=ChIJG7tkjTNdwokRdYbeHbBwJFc", "latitude": 40.6971465, "longitude": -73.9352686 }, "geometry": { "type": "Point", "coordinates": [ -73.9352686, 40.6971465 ] } },
{ "type": "Feature", "properties": { "title": "Falansai", "price": "$50–100", "categoryName": "Vietnamese restaurant", "address": "112 Harrison Pl, Brooklyn, NY 11237", "neighborhood": "Bushwick", "street": "112 Harrison Pl", "city": "Brooklyn", "postalCode": "11237", "state": "New York", "location": { "lat": 40.7067681, "lng": -73.92876 }, "totalScore": 4.5, "reviewsCount": 495, "url": "https://www.google.com/maps/search/?api=1&query=Falansai&query_place_id=ChIJc11gFQJcwokRcOejfRbBPpo", "latitude": 40.7067681, "longitude": -73.92876 }, "geometry": { "type": "Point", "coordinates": [ -73.92876, 40.7067681 ] } },
{ "type": "Feature", "properties": { "title": "Gordo's Cantina", "price": "$20–30", "categoryName": "Mexican restaurant", "address": "140 St Nicholas Ave, Brooklyn, NY 11237", "neighborhood": "Bushwick", "street": "140 St Nicholas Ave", "city": "Brooklyn", "postalCode": "11237", "state": "New York", "location": { "lat": 40.7049645, "lng": -73.9175718 }, "totalScore": 4.5, "reviewsCount": 603, "url": "https://www.google.com/maps/search/?api=1&query=Gordo's%20Cantina&query_place_id=ChIJ4ahOydVYwokR7cBu4R_8BXo", "latitude": 40.7049645, "longitude": -73.9175718 }, "geometry": { "type": "Point", "coordinates": [ -73.9175718, 40.7049645 ] } },
{ "type": "Feature", "properties": { "title": "Mao Mao", "price": "$20–30", "categoryName": "Thai restaurant", "address": "1000 Broadway, Brooklyn, NY 11221", "neighborhood": "Bedford-Stuyvesant", "street": "1000 Broadway", "city": "Brooklyn", "postalCode": "11221", "state": "New York", "location": { "lat": 40.695799, "lng": -73.9334587 }, "totalScore": 4.4, "reviewsCount": 344, "url": "https://www.google.com/maps/search/?api=1&query=Mao%20Mao&query_place_id=ChIJnQxdCoNdwokROLos5NIpK8Q", "latitude": 40.695799, "longitude": -73.9334587 }, "geometry": { "type": "Point", "coordinates": [ -73.9334587, 40.695799 ] } }
]
}
